{"('821550', '821559')": "{'path_nodes': ('821550', '821559'), 'path_polyline': 'icnyH|c[jDmA', 'origin': {'id': '821550', 'x': 528849.3511895654, 'y': 182113.8126146983, 'lon': -0.1441511870930946, 'lat': 51.523250333239496, 's2_id': 5221390328818504945}, 'destination': {'id': '821559', 'x': 528878.7128509199, 'y': 182019.1831767487, 'lon': -0.1437627870934339, 'lat': 51.52239323323963, 's2_id': 5221390325857124155}, 'timestamp': 1637671582.6685598, 'request_payload': {'geocoded_waypoints': [{'geocoder_status': 'OK', 'place_id': 'ChIJN_p-Eg4bdkgRbsBfrsnuoKs', 'types': ['establishment', 'point_of_interest']}, {'geocoder_status': 'OK', 'place_id': 'ChIJJ9VtzU0bdkgRWS85N0hsEFU', 'types': ['establishment', 'point_of_interest']}], 'routes': [{'bounds': {'northeast': {'lat': 51.523248, 'lng': -0.14374}, 'southwest': {'lat': 51.5223974, 'lng': -0.1441294}}, 'copyrights': 'Map data \u00a92021', 'legs': [{'distance': {'text': '0.1 km', 'value': 98}, 'duration': {'text': '1 min', 'value': 19}, 'duration_in_traffic': {'text': '1 min', 'value': 23}, 'end_address': '193 Great Portland St, London W1W 5PR, UK', 'end_location': {'lat': 51.5223974, 'lng': -0.14374}, 'start_address': '199-209 Great Portland St, London W1W 5QU, UK', 'start_location': {'lat': 51.523248, 'lng': -0.1441294}, 'steps': [{'distance': {'text': '0.1 km', 'value': 98}, 'duration': {'text': '1 min', 'value': 19}, 'end_location': {'lat': 51.5223974, 'lng': -0.14374}, 'html_instructions': 'Head <b>south</b> on <b>Great Portland St</b>/<wbr/><b>B506</b> toward <b>Devonshire St</b>', 'polyline': {'points': 'icnyHxc[FCFCPGzAg@j@U'}, 'start_location': {'lat': 51.523248, 'lng': -0.1441294}, 'travel_mode': 'DRIVING'}], 'traffic_speed_entry': [], 'via_waypoint': []}], 'overview_polyline': {'points': 'icnyHxc[|Bw@j@U'}, 'summary': 'Great Portland St/B506', 'warnings': [], 'waypoint_order': []}], 'status': 'OK'}, 'parsed_response': {'google_speed': 4.260869565217392, 'google_polyline': 'icnyHxc[|Bw@j@U'}}", "('109349', '60035533')": "{'path_nodes': ('109349', '60035533'), 'path_polyline': 'efnyH`{VGP', 'origin': {'id': '109349', 'x': 530367.4912101941, 'y': 182203.92011985858, 'lon': -0.12224788708321918, 'lat': 51.52371203323968, 's2_id': 5221390742034218987}, 'destination': {'id': '60035533', 'x': 530360.7288168034, 'y': 182208.29780931148, 'lon': -0.12234368708323559, 'lat': 51.52375293323967, 's2_id': 5221390742025021247}, 'timestamp': 1637671582.6686358, 'request_payload': {'geocoded_waypoints': [{'geocoder_status': 'OK', 'place_id': 'ChIJPVRVJTcbdkgRPCuqw0WKmUU', 'types': ['premise']}, {'geocoder_status': 'OK', 'place_id': 'ChIJPVRVJTcbdkgRPCuqw0WKmUU', 'types': ['premise']}], 'routes': [{'bounds': {'northeast': {'lat': 51.523763, 'lng': -0.1222785}, 'southwest': {'lat': 51.5237254, 'lng': -0.1223023}}, 'copyrights': 'Map data \u00a92021 Google', 'legs': [{'distance': {'text': '4 m', 'value': 4}, 'duration': {'text': '1 min', 'value': 1}, 'duration_in_traffic': {'text': '1 min', 'value': 1}, 'end_address': 'Downing Court, Grenville St, London WC1N 1LX, UK', 'end_location': {'lat': 51.523763, 'lng': -0.1223023}, 'start_address': 'Downing Court, Grenville St, London WC1N 1LX, UK', 'start_location': {'lat': 51.5237254, 'lng': -0.1222785}, 'steps': [{'distance': {'text': '4 m', 'value': 4}, 'duration': {'text': '1 min', 'value': 1}, 'end_location': {'lat': 51.523763, 'lng': -0.1223023}, 'html_instructions': 'Head <b>north</b> on <b>Brunswick Square</b>', 'polyline': {'points': 'ifnyHf{VEB'}, 'start_location': {'lat': 51.5237254, 'lng': -0.1222785}, 'travel_mode': 'DRIVING'}], 'traffic_speed_entry': [], 'via_waypoint': []}], 'overview_polyline': {'points': 'ifnyHf{VEB'}, 'summary': 'Brunswick Square', 'warnings': [], 'waypoint_order': []}], 'status': 'OK'}, 'parsed_response': {'google_speed': 4.0, 'google_polyline': 'ifnyHf{VEB'}}", "('107848', '14791189')": "{'path_nodes': ('107848', '14791189'), 'path_polyline': 'uhmyH`sXr@hB', 'origin': {'id': '107848', 'x': 529759.3082895541, 'y': 181663.1699073442, 'lon': -0.13120828708995377, 'lat': 51.51899243324034, 's2_id': 5221390701409839275}, 'destination': {'id': '14791189', 'x': 529722.9713333722, 'y': 181633.29913677758, 'lon': -0.13174268709034131, 'lat': 51.5187323332404, 's2_id': 5221390701130112993}, 'timestamp': 1637671582.66866, 'request_payload': {'geocoded_waypoints': [{'geocoder_status': 'OK', 'place_id': 'ChIJmz3lxi0bdkgRf8y8Qd6CXsc', 'types': ['street_address']}, {'geocoder_status': 'OK', 'place_id': 'ChIJ1codtC0bdkgRNpT5aXOPLW0', 'types': ['street_address']}], 'routes': [{'bounds': {'northeast': {'lat': 51.5190001, 'lng': -0.1312136}, 'southwest': {'lat': 51.5187344, 'lng': -0.1317587}}, 'copyrights': 'Map data \u00a92021 Google', 'legs': [{'distance': {'text': '49 m', 'value': 49}, 'duration': {'text': '1 min', 'value': 24}, 'duration_in_traffic': {'text': '1 min', 'value': 24}, 'end_address': '3 Bayley St, London WC1B 3HA, UK', 'end_location': {'lat': 51.5187344, 'lng': -0.1317361}, 'start_address': '27 Bedford Square, London WC1B 3HP, UK', 'start_location': {'lat': 51.5190001, 'lng': -0.1312136}, 'steps': [{'distance': {'text': '46 m', 'value': 46}, 'duration': {'text': '1 min', 'value': 12}, 'end_location': {'lat': 51.5187617, 'lng': -0.1317587}, 'html_instructions': 'Head <b>southwest</b> on <b>Bayley St</b>/<wbr/><b>B506</b> toward <b>Morwell St</b>', 'polyline': {'points': 'whmyH`sXn@lB'}, 'start_location': {'lat': 51.5190001, 'lng': -0.1312136}, 'travel_mode': 'DRIVING'}, {'distance': {'text': '3 m', 'value': 3}, 'duration': {'text': '1 min', 'value': 12}, 'end_location': {'lat': 51.5187344, 'lng': -0.1317361}, 'html_instructions': '<b>Bayley St</b>/<wbr/><b>B506</b> turns <b>left</b> and becomes <b>Morwell St</b>', 'polyline': {'points': 'ggmyHnvXDC'}, 'start_location': {'lat': 51.5187617, 'lng': -0.1317587}, 'travel_mode': 'DRIVING'}], 'traffic_speed_entry': [], 'via_waypoint': []}], 'overview_polyline': {'points': 'whmyH`sXn@lBDC'}, 'summary': 'Bayley St/B506', 'warnings': [], 'waypoint_order': []}], 'status': 'OK'}, 'parsed_response': {'google_speed': 2.0416666666666665, 'google_polyline': 'whmyH`sXn@lBDC'}}", "('14791189', '107848')": "{'path_nodes': ('14791189', '107848'), 'path_polyline': 'agmyHjvXs@iB', 'origin': {'id': '14791189', 'x': 529722.9713333722, 'y': 181633.29913677758, 'lon': -0.13174268709034131, 'lat': 51.5187323332404, 's2_id': 5221390701130112993}, 'destination': {'id': '107848', 'x': 529759.3082895541, 'y': 181663.1699073442, 'lon': -0.13120828708995377, 'lat': 51.51899243324034, 's2_id': 5221390701409839275}, 'timestamp': 1637671582.668687, 'request_payload': {'geocoded_waypoints': [{'geocoder_status': 'OK', 'place_id': 'ChIJ1codtC0bdkgRNpT5aXOPLW0', 'types': ['street_address']}, {'geocoder_status': 'OK', 'place_id': 'ChIJmz3lxi0bdkgRf8y8Qd6CXsc', 'types': ['street_address']}], 'routes': [{'bounds': {'northeast': {'lat': 51.5190001, 'lng': -0.1312136}, 'southwest': {'lat': 51.5187344, 'lng': -0.1317587}}, 'copyrights': 'Map data \u00a92021 Google', 'legs': [{'distance': {'text': '49 m', 'value': 49}, 'duration': {'text': '1 min', 'value': 14}, 'duration_in_traffic': {'text': '1 min', 'value': 18}, 'end_address': '27 Bedford Square, London WC1B 3HP, UK', 'end_location': {'lat': 51.5190001, 'lng': -0.1312136}, 'start_address': '3 Bayley St, London WC1B 3HA, UK', 'start_location': {'lat': 51.5187344, 'lng': -0.1317361}, 'steps': [{'distance': {'text': '3 m', 'value': 3}, 'duration': {'text': '1 min', 'value': 1}, 'end_location': {'lat': 51.5187617, 'lng': -0.1317587}, 'html_instructions': 'Head <b>northwest</b> on <b>Morwell St</b> toward <b>Bayley St</b>/<wbr/><b>B506</b>', 'polyline': {'points': 'agmyHjvXEB'}, 'start_location': {'lat': 51.5187344, 'lng': -0.1317361}, 'travel_mode': 'DRIVING'}, {'distance': {'text': '46 m', 'value': 46}, 'duration': {'text': '1 min', 'value': 13}, 'end_location': {'lat': 51.5190001, 'lng': -0.1312136}, 'html_instructions': '<b>Morwell St</b> turns <b>right</b> and becomes <b>Bayley St</b>/<wbr/><b>B506</b>', 'polyline': {'points': 'ggmyHnvXo@mB'}, 'start_location': {'lat': 51.5187617, 'lng': -0.1317587}, 'travel_mode': 'DRIVING'}], 'traffic_speed_entry': [], 'via_waypoint': []}], 'overview_polyline': {'points': 'agmyHjvXEBo@mB'}, 'summary': 'Bayley St/B506', 'warnings': [], 'waypoint_order': []}], 'status': 'OK'}, 'parsed_response': {'google_speed': 2.7222222222222223, 'google_polyline': 'agmyHjvXEBo@mB'}}", "('60035532', '60035533')": "{'path_nodes': ('60035532', '60035533'), 'path_polyline': '}enyH~{VOK', 'origin': {'id': '60035532', 'x': 530356.7410048215, 'y': 182198.95950210653, 'lon': -0.12240458708331098, 'lat': 51.52366993323967, 's2_id': 5221390742020738093}, 'destination': {'id': '60035533', 'x': 530360.7288168034, 'y': 182208.29780931148, 'lon': -0.12234368708323559, 'lat': 51.52375293323967, 's2_id': 5221390742025021247}, 'timestamp': 1637671582.668712, 'request_payload': {'geocoded_waypoints': [{'geocoder_status': 'OK', 'place_id': 'ChIJPVRVJTcbdkgRPCuqw0WKmUU', 'types': ['premise']}, {'geocoder_status': 'OK', 'place_id': 'ChIJPVRVJTcbdkgRPCuqw0WKmUU', 'types': ['premise']}], 'routes': [{'bounds': {'northeast': {'lat': 51.523763, 'lng': -0.1222638}, 'southwest': {'lat': 51.5236694, 'lng': -0.1224043}}, 'copyrights': 'Map data \u00a92021 Google', 'legs': [{'distance': {'text': '17 m', 'value': 17}, 'duration': {'text': '1 min', 'value': 4}, 'duration_in_traffic': {'text': '1 min', 'value': 4}, 'end_address': 'Downing Court, Grenville St, London WC1N 1LX, UK', 'end_location': {'lat': 51.523763, 'lng': -0.1223023}, 'start_address': 'Downing Court, Grenville St, London WC1N 1LX, UK', 'start_location': {'lat': 51.5236694, 'lng': -0.1224043}, 'steps': [{'distance': {'text': '10 m', 'value': 10}, 'duration': {'text': '1 min', 'value': 2}, 'end_location': {'lat': 51.5237011, 'lng': -0.1222638}, 'html_instructions': 'Head <b>east</b> on <b>Bernard St</b>/<wbr/><b>B502</b> toward <b>Brunswick Square</b>', 'polyline': {'points': '}enyH~{VE['}, 'start_location': {'lat': 51.5236694, 'lng': -0.1224043}, 'travel_mode': 'DRIVING'}, {'distance': {'text': '7 m', 'value': 7}, 'duration': {'text': '1 min', 'value': 2}, 'end_location': {'lat': 51.523763, 'lng': -0.1223023}, 'html_instructions': 'Turn <b>left</b> onto <b>Brunswick Square</b><div style=\"font-size:0.9em\">Leaving toll zone</div><div style=\"font-size:0.9em\">Destination will be on the left</div>', 'maneuver': 'turn-left', 'polyline': {'points': 'cfnyHb{VEBEB'}, 'start_location': {'lat': 51.5237011, 'lng': -0.1222638}, 'travel_mode': 'DRIVING'}], 'traffic_speed_entry': [], 'via_waypoint': []}], 'overview_polyline': {'points': '}enyH~{VE[EBEB'}, 'summary': 'Bernard St/B502 and Brunswick Square', 'warnings': [], 'waypoint_order': []}], 'status': 'OK'}, 'parsed_response': {'google_speed': 4.25, 'google_polyline': '}enyH~{VE[EBEB'}}", "('60035532', '60035535')": "{'path_nodes': ('60035532', '60035535'), 'path_polyline': '}enyH~{VF[', 'origin': {'id': '60035532', 'x': 530356.7410048215, 'y': 182198.95950210653, 'lon': -0.12240458708331098, 'lat': 51.52366993323967, 's2_id': 5221390742020738093}, 'destination': {'id': '60035535', 'x': 530366.8640776458, 'y': 182194.5456432234, 'lon': -0.12226038708327418, 'lat': 51.523627933239666, 's2_id': 5221390742017931799}, 'timestamp': 1637671582.668725, 'request_payload': {'geocoded_waypoints': [{'geocoder_status': 'OK', 'place_id': 'ChIJPVRVJTcbdkgRPCuqw0WKmUU', 'types': ['premise']}, {'geocoder_status': 'OK', 'place_id': 'ChIJPVRVJTcbdkgRPCuqw0WKmUU', 'types': ['premise']}], 'routes': [{'bounds': {'northeast': {'lat': 51.5237011, 'lng': -0.1222239}, 'southwest': {'lat': 51.5236367, 'lng': -0.1224043}}, 'copyrights': 'Map data \u00a92021 Google', 'legs': [{'distance': {'text': '18 m', 'value': 18}, 'duration': {'text': '1 min', 'value': 4}, 'duration_in_traffic': {'text': '1 min', 'value': 4}, 'end_address': 'Downing Court, Grenville St, London WC1N 1LX, UK', 'end_location': {'lat': 51.5236367, 'lng': -0.1222239}, 'start_address': 'Downing Court, Grenville St, London WC1N 1LX, UK', 'start_location': {'lat': 51.5236694, 'lng': -0.1224043}, 'steps': [{'distance': {'text': '10 m', 'value': 10}, 'duration': {'text': '1 min', 'value': 2}, 'end_location': {'lat': 51.5237011, 'lng': -0.1222638}, 'html_instructions': 'Head <b>east</b> on <b>Bernard St</b>/<wbr/><b>B502</b> toward <b>Brunswick Square</b>', 'polyline': {'points': '}enyH~{VE['}, 'start_location': {'lat': 51.5236694, 'lng': -0.1224043}, 'travel_mode': 'DRIVING'}, {'distance': {'text': '8 m', 'value': 8}, 'duration': {'text': '1 min', 'value': 2}, 'end_location': {'lat': 51.5236367, 'lng': -0.1222239}, 'html_instructions': 'Turn <b>right</b> onto <b>Grenville St</b><div style=\"font-size:0.9em\">Destination will be on the right</div>', 'maneuver': 'turn-right', 'polyline': {'points': 'cfnyHb{VJG'}, 'start_location': {'lat': 51.5237011, 'lng': -0.1222638}, 'travel_mode': 'DRIVING'}], 'traffic_speed_entry': [], 'via_waypoint': []}], 'overview_polyline': {'points': '}enyH~{VE[JG'}, 'summary': 'Bernard St/B502 and Grenville St', 'warnings': [], 'waypoint_order': []}], 'status': 'OK'}, 'parsed_response': {'google_speed': 4.5, 'google_polyline': '}enyH~{VE[JG'}}", "('2047806084', '255566')": "{'path_nodes': ('2047806084', '255566'), 'path_polyline': 'krlyHdnZKD', 'origin': {'id': '2047806084', 'x': 529113.1043697781, 'y': 181249.41004932253, 'lon': -0.14066798709622622, 'lat': 51.51542203324082, 's2_id': 5221390688018024529}, 'destination': {'id': '255566', 'x': 529110.8165279367, 'y': 181255.83928485424, 'lon': -0.140698587096205, 'lat': 51.51548033324079, 's2_id': 5221390688019159091}, 'timestamp': 1637671582.668749, 'request_payload': {'geocoded_waypoints': [{'geocoder_status': 'OK', 'place_id': 'ChIJ84h6rCobdkgRrUc5Xdrzk2w', 'types': ['street_address']}, {'geocoder_status': 'OK', 'place_id': 'ChIJ02NlrCobdkgRA6oH_Y-RoHw', 'types': ['street_address']}], 'routes': [{'bounds': {'northeast': {'lat': 51.5154943, 'lng': -0.1406656}, 'southwest': {'lat': 51.51542569999999, 'lng': -0.1407081}}, 'copyrights': 'Map data \u00a92021 Google', 'legs': [{'distance': {'text': '8 m', 'value': 8}, 'duration': {'text': '1 min', 'value': 2}, 'duration_in_traffic': {'text': '1 min', 'value': 1}, 'end_address': '227 Oxford St, London W1D 2LR, UK', 'end_location': {'lat': 51.5154943, 'lng': -0.1407081}, 'start_address': '225 Oxford St, London W1D 2LR, UK', 'start_location': {'lat': 51.51542569999999, 'lng': -0.1406656}, 'steps': [{'distance': {'text': '8 m', 'value': 8}, 'duration': {'text': '1 min', 'value': 2}, 'end_location': {'lat': 51.5154943, 'lng': -0.1407081}, 'html_instructions': 'Head <b>north</b> on <b>Great Portland St</b> toward <b>Oxford St</b>/<wbr/><b>A40</b>', 'polyline': {'points': 'mrlyHdnZKF'}, 'start_location': {'lat': 51.51542569999999, 'lng': -0.1406656}, 'travel_mode': 'DRIVING'}], 'traffic_speed_entry': [], 'via_waypoint': []}], 'overview_polyline': {'points': 'mrlyHdnZKF'}, 'summary': 'Great Portland St', 'warnings': [], 'waypoint_order': []}], 'status': 'OK'}, 'parsed_response': {'google_speed': 8.0, 'google_polyline': 'mrlyHdnZKF'}}", "('1667203491', '1684410054')": "{'path_nodes': ('1667203491', '1684410054'), 'path_polyline': 'gxlyH`a\\\\~DsA', 'origin': {'id': '1667203491', 'x': 528545.5372283176, 'y': 181338.99680078932, 'lon': -0.14881028709924338, 'lat': 51.5163564332406, 's2_id': 5221390311898177595}, 'destination': {'id': '1684410054', 'x': 528577.228591008, 'y': 181232.8743807681, 'lon': -0.14839248709963276, 'lat': 51.5153955332407, 's2_id': 5221390312432500411}, 'timestamp': 1637671582.6687748, 'request_payload': {'geocoded_waypoints': [{'geocoder_status': 'OK', 'place_id': 'ChIJlU1OI9MadkgRTLDEfVKX5zg', 'types': ['street_address']}, {'geocoder_status': 'OK', 'place_id': 'ChIJwQ3pO9MadkgR7Lh0ID1m0Kk', 'types': ['street_address']}], 'routes': [{'bounds': {'northeast': {'lat': 51.5163708, 'lng': -0.148359}, 'southwest': {'lat': 51.5154129, 'lng': -0.148802}}, 'copyrights': 'Map data \u00a92021', 'legs': [{'distance': {'text': '0.1 km', 'value': 111}, 'duration': {'text': '1 min', 'value': 31}, 'duration_in_traffic': {'text': '1 min', 'value': 44}, 'end_address': '74 Welbeck St, London W1G 0BA, UK', 'end_location': {'lat': 51.5154129, 'lng': -0.148359}, 'start_address': '39 Wigmore St, London W1U 1PD, UK', 'start_location': {'lat': 51.5163708, 'lng': -0.148802}, 'steps': [{'distance': {'text': '0.1 km', 'value': 111}, 'duration': {'text': '1 min', 'value': 31}, 'end_location': {'lat': 51.5154129, 'lng': -0.148359}, 'html_instructions': 'Head <b>south</b> on <b>Welbeck St</b>/<wbr/><b>B406</b> toward <b>Henrietta Pl</b>', 'polyline': {'points': 'ixlyH~`\\\\t@WhC_A'}, 'start_location': {'lat': 51.5163708, 'lng': -0.148802}, 'travel_mode': 'DRIVING'}], 'traffic_speed_entry': [], 'via_waypoint': []}], 'overview_polyline': {'points': 'ixlyH~`\\\\~DwA'}, 'summary': 'Welbeck St/B406', 'warnings': [], 'waypoint_order': []}], 'status': 'OK'}, 'parsed_response': {'google_speed': 2.522727272727273, 'google_polyline': 'ixlyH~`\\\\~DwA'}}", "('1684410054', '1684410058')": "{'path_nodes': ('1684410054', '1684410058'), 'path_polyline': 'grlyHl~[Y_D', 'origin': {'id': '1684410054', 'x': 528577.228591008, 'y': 181232.8743807681, 'lon': -0.14839248709963276, 'lat': 51.5153955332407, 's2_id': 5221390312432500411}, 'destination': {'id': '1684410058', 'x': 528632.2359216934, 'y': 181249.06604453287, 'lon': -0.1475942870992026, 'lat': 51.515528533240705, 's2_id': 5221390312863352989}, 'timestamp': 1637671582.668788, 'request_payload': {'geocoded_waypoints': [{'geocoder_status': 'OK', 'place_id': 'ChIJwQ3pO9MadkgR7Lh0ID1m0Kk', 'types': ['street_address']}, {'geocoder_status': 'OK', 'place_id': 'ChIJs40CVtMadkgRczZskLN41hg', 'types': ['street_address']}], 'routes': [{'bounds': {'northeast': {'lat': 51.5155335, 'lng': -0.1475966}, 'southwest': {'lat': 51.5154129, 'lng': -0.148359}}, 'copyrights': 'Map data \u00a92021', 'legs': [{'distance': {'text': '54 m', 'value': 54}, 'duration': {'text': '1 min', 'value': 14}, 'duration_in_traffic': {'text': '1 min', 'value': 18}, 'end_address': '7 Vere St, London W1G 0DQ, UK', 'end_location': {'lat': 51.5155335, 'lng': -0.1475966}, 'start_address': '74 Welbeck St, London W1G 0BA, UK', 'start_location': {'lat': 51.5154129, 'lng': -0.148359}, 'steps': [{'distance': {'text': '54 m', 'value': 54}, 'duration': {'text': '1 min', 'value': 14}, 'end_location': {'lat': 51.5155335, 'lng': -0.1475966}, 'html_instructions': 'Head <b>east</b> on <b>Henrietta Pl</b>/<wbr/><b>B406</b> toward <b>Vere St</b>', 'polyline': {'points': 'irlyHf~[Gi@McBAI'}, 'start_location': {'lat': 51.5154129, 'lng': -0.148359}, 'travel_mode': 'DRIVING'}], 'traffic_speed_entry': [], 'via_waypoint': []}], 'overview_polyline': {'points': 'irlyHf~[WwC'}, 'summary': 'Henrietta Pl/B406', 'warnings': [], 'waypoint_order': []}], 'status': 'OK'}, 'parsed_response': {'google_speed': 3.0, 'google_polyline': 'irlyHf~[WwC'}}", "('25522558', '821550')": "{'path_nodes': ('25522558', '821550'), 'path_polyline': '}dnyHfb[r@t@', 'origin': {'id': '25522558', 'x': 528867.1745911204, 'y': 182143.19631453254, 'lon': -0.14388368709282368, 'lat': 51.52351033323944, 's2_id': 5221390331520430839}, 'destination': {'id': '821550', 'x': 528849.3511895654, 'y': 182113.8126146983, 'lon': -0.1441511870930946, 'lat': 51.523250333239496, 's2_id': 5221390328818504945}, 'timestamp': 1637671582.668811, 'request_payload': {'geocoded_waypoints': [{'geocoder_status': 'OK', 'place_id': 'ChIJoRUvptcadkgRl_n3ygksrTo', 'types': ['street_address']}, {'geocoder_status': 'OK', 'place_id': 'ChIJN_p-Eg4bdkgRbsBfrsnuoKs', 'types': ['establishment', 'point_of_interest']}], 'routes': [{'bounds': {'northeast': {'lat': 51.5235091, 'lng': -0.1439083}, 'southwest': {'lat': 51.523248, 'lng': -0.1441468}}, 'copyrights': 'Map data \u00a92021 Google', 'legs': [{'distance': {'text': '36 m', 'value': 36}, 'duration': {'text': '1 min', 'value': 8}, 'duration_in_traffic': {'text': '1 min', 'value': 8}, 'end_address': '199-209 Great Portland St, London W1W 5QU, UK', 'end_location': {'lat': 51.523248, 'lng': -0.1441294}, 'start_address': '246248 Great Portland St, London W1W 5JL, UK', 'start_location': {'lat': 51.5235091, 'lng': -0.1439083}, 'steps': [{'distance': {'text': '36 m', 'value': 36}, 'duration': {'text': '1 min', 'value': 8}, 'end_location': {'lat': 51.523248, 'lng': -0.1441294}, 'html_instructions': 'Head <b>southwest</b> on <b>Great Portland St</b> toward <b>B506</b>', 'polyline': {'points': '}dnyHlb[BHDFDHBFFDFDDAB?DA'}, 'start_location': {'lat': 51.5235091, 'lng': -0.1439083}, 'travel_mode': 'DRIVING'}], 'traffic_speed_entry': [], 'via_waypoint': []}], 'overview_polyline': {'points': '}dnyHlb[Rb@NJHADA'}, 'summary': 'Great Portland St', 'warnings': [], 'waypoint_order': []}], 'status': 'OK'}, 'parsed_response': {'google_speed': 4.5, 'google_polyline': '}dnyHlb[Rb@NJHADA'}}", "('60035535', '3943984251')": "{'path_nodes': ('60035535', '3943984251'), 'path_polyline': 'uenyHb{V~BqA', 'origin': {'id': '60035535', 'x': 530366.8640776458, 'y': 182194.5456432234, 'lon': -0.12226038708327418, 'lat': 51.523627933239666, 's2_id': 5221390742017931799}, 'destination': {'id': '3943984251', 'x': 530397.3803992561, 'y': 182123.92247810628, 'lon': -0.12184688708347477, 'lat': 51.522986233239784, 's2_id': 5221390741548489905}, 'timestamp': 1637671582.66886, 'request_payload': {'geocoded_waypoints': [{'geocoder_status': 'OK', 'place_id': 'ChIJPVRVJTcbdkgRPCuqw0WKmUU', 'types': ['premise']}, {'geocoder_status': 'OK', 'place_id': 'ChIJmUJ0IDcbdkgRfqMCaWJe0To', 'types': ['premise']}], 'routes': [{'bounds': {'northeast': {'lat': 51.5236367, 'lng': -0.121842}, 'southwest': {'lat': 51.5229976, 'lng': -0.1222239}}, 'copyrights': 'Map data \u00a92021 Google', 'legs': [{'distance': {'text': '76 m', 'value': 76}, 'duration': {'text': '1 min', 'value': 17}, 'duration_in_traffic': {'text': '1 min', 'value': 18}, 'end_address': '50 Guilford St, London WC1N 1DE, UK', 'end_location': {'lat': 51.5229976, 'lng': -0.121842}, 'start_address': 'Downing Court, Grenville St, London WC1N 1LX, UK', 'start_location': {'lat': 51.5236367, 'lng': -0.1222239}, 'steps': [{'distance': {'text': '76 m', 'value': 76}, 'duration': {'text': '1 min', 'value': 17}, 'end_location': {'lat': 51.5229976, 'lng': -0.121842}, 'html_instructions': 'Head <b>south</b> on <b>Grenville St</b> toward <b>Colonnade</b>', 'polyline': {'points': 'wenyHzzVJEFEBA@?VOh@YJCVO'}, 'start_location': {'lat': 51.5236367, 'lng': -0.1222239}, 'travel_mode': 'DRIVING'}], 'traffic_speed_entry': [], 'via_waypoint': []}], 'overview_polyline': {'points': 'wenyHzzVXM`Ai@b@S'}, 'summary': 'Grenville St', 'warnings': [], 'waypoint_order': []}], 'status': 'OK'}, 'parsed_response': {'google_speed': 4.222222222222222, 'google_polyline': 'wenyHzzVXM`Ai@b@S'}}", "('109349', '60035535')": "{'path_nodes': ('109349', '60035535'), 'path_polyline': 'efnyH`{VN@', 'origin': {'id': '109349', 'x': 530367.4912101941, 'y': 182203.92011985858, 'lon': -0.12224788708321918, 'lat': 51.52371203323968, 's2_id': 5221390742034218987}, 'destination': {'id': '60035535', 'x': 530366.8640776458, 'y': 182194.5456432234, 'lon': -0.12226038708327418, 'lat': 51.523627933239666, 's2_id': 5221390742017931799}, 'timestamp': 1637671582.6688871, 'request_payload': {'geocoded_waypoints': [{'geocoder_status': 'OK', 'place_id': 'ChIJPVRVJTcbdkgRPCuqw0WKmUU', 'types': ['premise']}, {'geocoder_status': 'OK', 'place_id': 'ChIJPVRVJTcbdkgRPCuqw0WKmUU', 'types': ['premise']}], 'routes': [{'bounds': {'northeast': {'lat': 51.5237011, 'lng': -0.1222239}, 'southwest': {'lat': 51.5236367, 'lng': -0.1222638}}, 'copyrights': 'Map data \u00a92021 Google', 'legs': [{'distance': {'text': '8 m', 'value': 8}, 'duration': {'text': '1 min', 'value': 2}, 'duration_in_traffic': {'text': '1 min', 'value': 1}, 'end_address': 'Downing Court, Grenville St, London WC1N 1LX, UK', 'end_location': {'lat': 51.5236367, 'lng': -0.1222239}, 'start_address': 'Downing Court, Grenville St, London WC1N 1LX, UK', 'start_location': {'lat': 51.5237011, 'lng': -0.1222638}, 'steps': [{'distance': {'text': '8 m', 'value': 8}, 'duration': {'text': '1 min', 'value': 2}, 'end_location': {'lat': 51.5236367, 'lng': -0.1222239}, 'html_instructions': 'Head <b>south</b> on <b>Grenville St</b>', 'polyline': {'points': 'cfnyHb{VJG'}, 'start_location': {'lat': 51.5237011, 'lng': -0.1222638}, 'travel_mode': 'DRIVING'}], 'traffic_speed_entry': [], 'via_waypoint': []}], 'overview_polyline': {'points': 'cfnyHb{VJG'}, 'summary': 'Grenville St', 'warnings': [], 'waypoint_order': []}], 'status': 'OK'}, 'parsed_response': {'google_speed': 8.0, 'google_polyline': 'cfnyHb{VJG'}}", "('60035533', '305691975')": "{'path_nodes': ('60035533', '305691975'), 'path_polyline': 'mfnyHr{Vk@J', 'origin': {'id': '60035533', 'x': 530360.7288168034, 'y': 182208.29780931148, 'lon': -0.12234368708323559, 'lat': 51.52375293323967, 's2_id': 5221390742025021247}, 'destination': {'id': '305691975', 'x': 530356.2034866889, 'y': 182232.3510177004, 'lon': -0.12239998708313073, 'lat': 51.52397013323962, 's2_id': 5221390741976307405}, 'timestamp': 1637671582.668906, 'request_payload': {'geocoded_waypoints': [{'geocoder_status': 'OK', 'place_id': 'ChIJPVRVJTcbdkgRPCuqw0WKmUU', 'types': ['premise']}, {'geocoder_status': 'OK', 'place_id': 'ChIJ18cEsDAbdkgRFIj9C93Q3Es', 'types': ['premise']}], 'routes': [{'bounds': {'northeast': {'lat': 51.52396299999999, 'lng': -0.1223023}, 'southwest': {'lat': 51.523763, 'lng': -0.1224289}}, 'copyrights': 'Map data \u00a92021 Google', 'legs': [{'distance': {'text': '24 m', 'value': 24}, 'duration': {'text': '1 min', 'value': 5}, 'duration_in_traffic': {'text': '1 min', 'value': 5}, 'end_address': 'unit 57 Brunswick Square, London WC1N, UK', 'end_location': {'lat': 51.52396299999999, 'lng': -0.1224289}, 'start_address': 'Downing Court, Grenville St, London WC1N 1LX, UK', 'start_location': {'lat': 51.523763, 'lng': -0.1223023}, 'steps': [{'distance': {'text': '24 m', 'value': 24}, 'duration': {'text': '1 min', 'value': 5}, 'end_location': {'lat': 51.52396299999999, 'lng': -0.1224289}, 'html_instructions': 'Head <b>north</b> on <b>Brunswick Square</b><div style=\"font-size:0.9em\">Entering toll zone</div><div style=\"font-size:0.9em\">Destination will be on the right</div>', 'polyline': {'points': 'ofnyHj{Va@TEB'}, 'start_location': {'lat': 51.523763, 'lng': -0.1223023}, 'travel_mode': 'DRIVING'}], 'traffic_speed_entry': [], 'via_waypoint': []}], 'overview_polyline': {'points': 'ofnyHj{Vg@X'}, 'summary': 'Brunswick Square', 'warnings': [], 'waypoint_order': []}], 'status': 'OK'}, 'parsed_response': {'google_speed': 4.8, 'google_polyline': 'ofnyHj{Vg@X'}}", "('821550', '25522559')": "{'path_nodes': ('821550', '25522559'), 'path_polyline': 'icnyH|c[uAN', 'origin': {'id': '821550', 'x': 528849.3511895654, 'y': 182113.8126146983, 'lon': -0.1441511870930946, 'lat': 51.523250333239496, 's2_id': 5221390328818504945}, 'destination': {'id': '25522559', 'x': 528842.6948471027, 'y': 182161.95959961542, 'lon': -0.14422948709287078, 'lat': 51.523684533239404, 's2_id': 5221390328858015501}, 'timestamp': 1637671582.668925, 'request_payload': {'geocoded_waypoints': [{'geocoder_status': 'OK', 'place_id': 'ChIJN_p-Eg4bdkgRbsBfrsnuoKs', 'types': ['establishment', 'point_of_interest']}, {'geocoder_status': 'OK', 'place_id': 'ChIJ2Vhap9cadkgROGIc5uBwtpo', 'types': ['street_address']}], 'routes': [{'bounds': {'northeast': {'lat': 51.5236584, 'lng': -0.1441294}, 'southwest': {'lat': 51.523248, 'lng': -0.1442167}}, 'copyrights': 'Map data \u00a92021 Google', 'legs': [{'distance': {'text': '47 m', 'value': 47}, 'duration': {'text': '1 min', 'value': 20}, 'duration_in_traffic': {'text': '1 min', 'value': 18}, 'end_address': '1 Great Portland St, London W1W 5PW, UK', 'end_location': {'lat': 51.5236584, 'lng': -0.1441918}, 'start_address': '199-209 Great Portland St, London W1W 5QU, UK', 'start_location': {'lat': 51.523248, 'lng': -0.1441294}, 'steps': [{'distance': {'text': '47 m', 'value': 47}, 'duration': {'text': '1 min', 'value': 20}, 'end_location': {'lat': 51.5236584, 'lng': -0.1441918}, 'html_instructions': 'Head <b>north</b> on <b>Great Portland St</b>/<wbr/><b>B506</b><div style=\"font-size:0.9em\">Continue to follow Great Portland St</div><div style=\"font-size:0.9em\">Leaving toll zone</div>', 'polyline': {'points': 'icnyHxc[E@C?E@QJK?E@I?GEK?'}, 'start_location': {'lat': 51.523248, 'lng': -0.1441294}, 'travel_mode': 'DRIVING'}], 'traffic_speed_entry': [], 'via_waypoint': []}], 'overview_polyline': {'points': 'icnyHxc[I@WLQ@QEK?'}, 'summary': 'Great Portland St', 'warnings': [], 'waypoint_order': []}], 'status': 'OK'}, 'parsed_response': {'google_speed': 2.611111111111111, 'google_polyline': 'icnyHxc[I@WLQ@QEK?'}}", "('305691971', '109349')": "{'path_nodes': ('305691971', '109349'), 'path_polyline': '}fnyHzxVVdA', 'origin': {'id': '305691971', 'x': 530391.2789650426, 'y': 182217.21618592896, 'lon': -0.12190028708299697, 'lat': 51.52382603323963, 's2_id': 5221390742060118677}, 'destination': {'id': '109349', 'x': 530367.4912101941, 'y': 182203.92011985858, 'lon': -0.12224788708321918, 'lat': 51.52371203323968, 's2_id': 5221390742034218987}, 'timestamp': 1637671582.6689448, 'request_payload': {'geocoded_waypoints': [{'geocoder_status': 'OK', 'place_id': 'EhsxIEI1MDQsIExvbmRvbiBXQzFOIDFBVywgVUsiGhIYChQKEgnHf_A4Nxt2SBH1Fhw4FtShFxAB', 'types': ['street_address']}, {'geocoder_status': 'OK', 'place_id': 'ChIJPVRVJTcbdkgRPCuqw0WKmUU', 'types': ['premise']}], 'routes': [{'bounds': {'northeast': {'lat': 51.5240008, 'lng': -0.1205714}, 'southwest': {'lat': 51.52244779999999, 'lng': -0.1249874}}, 'copyrights': 'Map data \u00a92021 Google', 'legs': [{'distance': {'text': '0.7 km', 'value': 706}, 'duration': {'text': '3 mins', 'value': 159}, 'duration_in_traffic': {'text': '3 mins', 'value': 160}, 'end_address': 'Downing Court, Grenville St, London WC1N 1LX, UK', 'end_location': {'lat': 51.5237011, 'lng': -0.1222638}, 'start_address': '1 B504, London WC1N 1AW, UK', 'start_location': {'lat': 51.5238324, 'lng': -0.1218218}, 'steps': [{'distance': {'text': '61 m', 'value': 61}, 'duration': {'text': '1 min', 'value': 12}, 'end_location': {'lat': 51.5239927, 'lng': -0.120993}, 'html_instructions': 'Head <b>east</b> on <b>Brunswick Square</b> toward <b>Lansdowne Terrace</b>', 'polyline': {'points': '}fnyHjxVG]COQuAAAAK?C?C?A?C@E'}, 'start_location': {'lat': 51.5238324, 'lng': -0.1218218}, 'travel_mode': 'DRIVING'}, {'distance': {'text': '83 m', 'value': 83}, 'duration': {'text': '1 min', 'value': 17}, 'end_location': {'lat': 51.5232935, 'lng': -0.1205714}, 'html_instructions': '<b>Brunswick Square</b> turns <b>right</b> and becomes <b>Lansdowne Terrace</b>', 'polyline': {'points': '}gnyHdsV@A?A@AFEJEBAd@Wr@[TK'}, 'start_location': {'lat': 51.5239927, 'lng': -0.120993}, 'travel_mode': 'DRIVING'}, {'distance': {'text': '0.3 km', 'value': 274}, 'duration': {'text': '1 min', 'value': 57}, 'end_location': {'lat': 51.52244779999999, 'lng': -0.1242841}, 'html_instructions': 'Turn <b>right</b> onto <b>Guilford St</b>/<wbr/><b>B502</b>', 'maneuver': 'turn-right', 'polyline': {'points': 'qcnyHppVDZVbBZ|BT~ATfBV`BVjB?BPlA'}, 'start_location': {'lat': 51.5232935, 'lng': -0.1205714}, 'travel_mode': 'DRIVING'}, {'distance': {'text': '88 m', 'value': 88}, 'duration': {'text': '1 min', 'value': 20}, 'end_location': {'lat': 51.523098, 'lng': -0.1249874}, 'html_instructions': 'Turn <b>right</b> onto <b>Herbrand St</b>', 'maneuver': 'turn-right', 'polyline': {'points': 'i~myHvgWUNCBGD_@f@_@f@EFYZ'}, 'start_location': {'lat': 51.52244779999999, 'lng': -0.1242841}, 'travel_mode': 'DRIVING'}, {'distance': {'text': '0.2 km', 'value': 200}, 'duration': {'text': '1 min', 'value': 53}, 'end_location': {'lat': 51.5237011, 'lng': -0.1222638}, 'html_instructions': 'Turn <b>right</b> onto <b>Bernard St</b>/<wbr/><b>B502</b>', 'maneuver': 'turn-right', 'polyline': {'points': 'kbnyHdlWS_BQoA]kCEY]eCOeA'}, 'start_location': {'lat': 51.523098, 'lng': -0.1249874}, 'travel_mode': 'DRIVING'}], 'traffic_speed_entry': [], 'via_waypoint': []}], 'overview_polyline': {'points': '}fnyHjxV_@eCAUBMXOxAs@TKDZr@`Fj@fE`A~GYRg@l@e@n@YZS_Bo@{Ec@_DOeA'}, 'summary': 'Guilford St/B502 and Bernard St/B502', 'warnings': [], 'waypoint_order': []}], 'status': 'OK'}, 'parsed_response': {'google_speed': 4.4125, 'google_polyline': '}fnyHjxV_@eCAUBMXOxAs@TKDZr@`Fj@fE`A~GYRg@l@e@n@YZS_Bo@{Ec@_DOeA'}}", "('1684410058', '1684410054')": "{'path_nodes': ('1684410058', '1684410054'), 'path_polyline': 'aslyHly[X~C', 'origin': {'id': '1684410058', 'x': 528632.2359216934, 'y': 181249.06604453287, 'lon': -0.1475942870992026, 'lat': 51.515528533240705, 's2_id': 5221390312863352989}, 'destination': {'id': '1684410054', 'x': 528577.228591008, 'y': 181232.8743807681, 'lon': -0.14839248709963276, 'lat': 51.5153955332407, 's2_id': 5221390312432500411}, 'timestamp': 1637671582.668965, 'request_payload': {'geocoded_waypoints': [{'geocoder_status': 'OK', 'place_id': 'ChIJs40CVtMadkgRczZskLN41hg', 'types': ['street_address']}, {'geocoder_status': 'OK', 'place_id': 'ChIJwQ3pO9MadkgR7Lh0ID1m0Kk', 'types': ['street_address']}], 'routes': [{'bounds': {'northeast': {'lat': 51.5155335, 'lng': -0.1475966}, 'southwest': {'lat': 51.5154129, 'lng': -0.148359}}, 'copyrights': 'Map data \u00a92021', 'legs': [{'distance': {'text': '54 m', 'value': 54}, 'duration': {'text': '1 min', 'value': 12}, 'duration_in_traffic': {'text': '1 min', 'value': 14}, 'end_address': '74 Welbeck St, London W1G 0BA, UK', 'end_location': {'lat': 51.5154129, 'lng': -0.148359}, 'start_address': '7 Vere St, London W1G 0DQ, UK', 'start_location': {'lat': 51.5155335, 'lng': -0.1475966}, 'steps': [{'distance': {'text': '54 m', 'value': 54}, 'duration': {'text': '1 min', 'value': 12}, 'end_location': {'lat': 51.5154129, 'lng': -0.148359}, 'html_instructions': 'Head <b>west</b> on <b>Henrietta Pl</b>/<wbr/><b>B406</b> toward <b>Welbeck St</b>', 'polyline': {'points': 'aslyHny[@HLbBFh@'}, 'start_location': {'lat': 51.5155335, 'lng': -0.1475966}, 'travel_mode': 'DRIVING'}], 'traffic_speed_entry': [], 'via_waypoint': []}], 'overview_polyline': {'points': 'aslyHny[VvC'}, 'summary': 'Henrietta Pl/B406', 'warnings': [], 'waypoint_order': []}], 'status': 'OK'}, 'parsed_response': {'google_speed': 3.857142857142857, 'google_polyline': 'aslyHny[VvC'}}", "('821559', '821550')": "{'path_nodes': ('821559', '821550'), 'path_polyline': '}}myHna[kDlA', 'origin': {'id': '821559', 'x': 528878.7128509199, 'y': 182019.1831767487, 'lon': -0.1437627870934339, 'lat': 51.52239323323963, 's2_id': 5221390325857124155}, 'destination': {'id': '821550', 'x': 528849.3511895654, 'y': 182113.8126146983, 'lon': -0.1441511870930946, 'lat': 51.523250333239496, 's2_id': 5221390328818504945}, 'timestamp': 1637671582.668986, 'request_payload': {'geocoded_waypoints': [{'geocoder_status': 'OK', 'place_id': 'ChIJJ9VtzU0bdkgRWS85N0hsEFU', 'types': ['establishment', 'point_of_interest']}, {'geocoder_status': 'OK', 'place_id': 'ChIJN_p-Eg4bdkgRbsBfrsnuoKs', 'types': ['establishment', 'point_of_interest']}], 'routes': [{'bounds': {'northeast': {'lat': 51.523248, 'lng': -0.14374}, 'southwest': {'lat': 51.5223974, 'lng': -0.1441294}}, 'copyrights': 'Map data \u00a92021', 'legs': [{'distance': {'text': '0.1 km', 'value': 98}, 'duration': {'text': '1 min', 'value': 27}, 'duration_in_traffic': {'text': '1 min', 'value': 27}, 'end_address': '199-209 Great Portland St, London W1W 5QU, UK', 'end_location': {'lat': 51.523248, 'lng': -0.1441294}, 'start_address': '193 Great Portland St, London W1W 5PR, UK', 'start_location': {'lat': 51.5223974, 'lng': -0.14374}, 'steps': [{'distance': {'text': '0.1 km', 'value': 98}, 'duration': {'text': '1 min', 'value': 27}, 'end_location': {'lat': 51.523248, 'lng': -0.1441294}, 'html_instructions': 'Head <b>north</b> on <b>Great Portland St</b>/<wbr/><b>B506</b> toward <b>Park Crescent Mews E</b>', 'polyline': {'points': '_~myHja[k@T{Af@QFGBGB'}, 'start_location': {'lat': 51.5223974, 'lng': -0.14374}, 'travel_mode': 'DRIVING'}], 'traffic_speed_entry': [], 'via_waypoint': []}], 'overview_polyline': {'points': '_~myHja[iDlA'}, 'summary': 'Great Portland St/B506', 'warnings': [], 'waypoint_order': []}], 'status': 'OK'}, 'parsed_response': {'google_speed': 3.6296296296296298, 'google_polyline': '_~myHja[iDlA'}}", "('351788581', '452486137')": "{'path_nodes': ['351788581', '1614926340', '452486137'], 'path_polyline': '_mlyHvyVjAnBjAdB', 'origin': {'id': '351788581', 'x': 530408.2266209685, 'y': 181187.08346980734, 'lon': -0.12203698708857721, 'lat': 51.514564733241166, 's2_id': 5221366089140130631}, 'destination': {'id': '452486137', 'x': 530336.2029860646, 'y': 181100.6098553125, 'lon': -0.12310628708949857, 'lat': 51.51380423324127, 's2_id': 5221366089500926033}, 'timestamp': 1637671582.669007, 'request_payload': {'geocoded_waypoints': [{'geocoder_status': 'OK', 'place_id': 'ChIJ_dwjTssEdkgRiFkpcNxtMhM', 'types': ['street_address']}, {'geocoder_status': 'OK', 'place_id': 'ChIJda2bXssEdkgRzMGA-t3Uo-Y', 'types': ['bakery', 'cafe', 'establishment', 'food', 'meal_takeaway', 'point_of_interest', 'restaurant', 'store']}], 'routes': [{'bounds': {'northeast': {'lat': 51.5145685, 'lng': -0.122045}, 'southwest': {'lat': 51.5138071, 'lng': -0.1231193}}, 'copyrights': 'Map data \u00a92021 Google', 'legs': [{'distance': {'text': '0.1 km', 'value': 114}, 'duration': {'text': '1 min', 'value': 30}, 'duration_in_traffic': {'text': '1 min', 'value': 32}, 'end_address': '63 Long Acre, London WC2E 9JN, UK', 'end_location': {'lat': 51.5138071, 'lng': -0.1231193}, 'start_address': '78 Long Acre, London WC2E 9NG, UK', 'start_location': {'lat': 51.5145685, 'lng': -0.122045}, 'steps': [{'distance': {'text': '0.1 km', 'value': 114}, 'duration': {'text': '1 min', 'value': 30}, 'end_location': {'lat': 51.5138071, 'lng': -0.1231193}, 'html_instructions': 'Head <b>southwest</b> on <b>Long Acre</b>/<wbr/><b>B402</b> toward <b>Arne St</b>', 'polyline': {'points': 'amlyHxyVFFBDBDDHHLh@`A^p@Rb@@BBBBB@@D@F@'}, 'start_location': {'lat': 51.5145685, 'lng': -0.122045}, 'travel_mode': 'DRIVING'}], 'traffic_speed_entry': [], 'via_waypoint': []}], 'overview_polyline': {'points': 'amlyHxyVT\\\\fBdDJLLB'}, 'summary': 'Long Acre/B402', 'warnings': [], 'waypoint_order': []}], 'status': 'OK'}, 'parsed_response': {'google_speed': 3.5625, 'google_polyline': 'amlyHxyVT\\\\fBdDJLLB'}}", "('351788581', '1614978621')": "{'path_nodes': ['351788581', '21704017', '2441993346', '9475528', '455705622', '1614978621'], 'path_polyline': '_mlyHvyV{@y@CA}DmFgBmDE]', 'origin': {'id': '351788581', 'x': 530408.2266209685, 'y': 181187.08346980734, 'lon': -0.12203698708857721, 'lat': 51.514564733241166, 's2_id': 5221366089140130631}, 'destination': {'id': '1614978621', 'x': 530576.8274248724, 'y': 181393.9033903911, 'lon': -0.11953208708639783, 'lat': 51.5163844332409, 's2_id': 5221390732826561719}, 'timestamp': 1637671582.6690261, 'request_payload': {'geocoded_waypoints': [{'geocoder_status': 'OK', 'place_id': 'ChIJ_dwjTssEdkgRiFkpcNxtMhM', 'types': ['street_address']}, {'geocoder_status': 'OK', 'place_id': 'ChIJyf-1bDUbdkgRPXzY5S3KuqI', 'types': ['street_address']}], 'routes': [{'bounds': {'northeast': {'lat': 51.51638999999999, 'lng': -0.118608}, 'southwest': {'lat': 51.51209859999999, 'lng': -0.1231193}}, 'copyrights': 'Map data \u00a92021 Google', 'legs': [{'distance': {'text': '1.0 km', 'value': 993}, 'duration': {'text': '4 mins', 'value': 240}, 'duration_in_traffic': {'text': '4 mins', 'value': 250}, 'end_address': '60 Kingsway, London WC2B 6DS, UK', 'end_location': {'lat': 51.51638999999999, 'lng': -0.1195499}, 'start_address': '78 Long Acre, London WC2E 9NG, UK', 'start_location': {'lat': 51.5145685, 'lng': -0.122045}, 'steps': [{'distance': {'text': '0.1 km', 'value': 114}, 'duration': {'text': '1 min', 'value': 30}, 'end_location': {'lat': 51.5138071, 'lng': -0.1231193}, 'html_instructions': 'Head <b>southwest</b> on <b>Long Acre</b>/<wbr/><b>B402</b> toward <b>Arne St</b>', 'polyline': {'points': 'amlyHxyVFFBDBDDHHLh@`A^p@Rb@@BBBBB@@D@F@'}, 'start_location': {'lat': 51.5145685, 'lng': -0.122045}, 'travel_mode': 'DRIVING'}, {'distance': {'text': '0.2 km', 'value': 184}, 'duration': {'text': '1 min', 'value': 42}, 'end_location': {'lat': 51.512679, 'lng': -0.1212206}, 'html_instructions': 'Turn <b>left</b> onto <b>Bow St</b><div style=\"font-size:0.9em\">Entering toll zone</div>', 'maneuver': 'turn-left', 'polyline': {'points': 'ihlyHn`WBIDKb@kADM@E@E@E@EH[Tk@Rc@BELOFI~@iAV]'}, 'start_location': {'lat': 51.5138071, 'lng': -0.1231193}, 'travel_mode': 'DRIVING'}, {'distance': {'text': '81 m', 'value': 81}, 'duration': {'text': '1 min', 'value': 21}, 'end_location': {'lat': 51.51209859999999, 'lng': -0.1205197}, 'html_instructions': 'Continue onto <b>Wellington St</b>', 'polyline': {'points': 'galyHrtVBCf@i@RUBETWHMDGDIBI'}, 'start_location': {'lat': 51.512679, 'lng': -0.1212206}, 'travel_mode': 'DRIVING'}, {'distance': {'text': '0.2 km', 'value': 172}, 'duration': {'text': '1 min', 'value': 45}, 'end_location': {'lat': 51.5133429, 'lng': -0.1191357}, 'html_instructions': 'Turn <b>left</b> onto <b>Tavistock St</b>', 'maneuver': 'turn-left', 'polyline': {'points': 's}kyHfpVk@{A?AGQCGEGu@i@_Aq@cAw@'}, 'start_location': {'lat': 51.51209859999999, 'lng': -0.1205197}, 'travel_mode': 'DRIVING'}, {'distance': {'text': '75 m', 'value': 75}, 'duration': {'text': '1 min', 'value': 17}, 'end_location': {'lat': 51.5137078, 'lng': -0.1200448}, 'html_instructions': 'Turn <b>left</b> onto <b>Drury Ln</b><div style=\"font-size:0.9em\">Leaving toll zone</div>', 'maneuver': 'turn-left', 'polyline': {'points': 'kelyHrgVIPy@vCEH'}, 'start_location': {'lat': 51.5133429, 'lng': -0.1191357}, 'travel_mode': 'DRIVING'}, {'distance': {'text': '0.2 km', 'value': 161}, 'duration': {'text': '1 min', 'value': 35}, 'end_location': {'lat': 51.51473619999999, 'lng': -0.118608}, 'html_instructions': 'Turn <b>right</b> onto <b>Kemble St</b><div style=\"font-size:0.9em\">Entering toll zone</div>', 'maneuver': 'turn-right', 'polyline': {'points': 'uglyHfmVCHsB}BUSEEGEEAKSAEAC?CAEIc@?AOy@'}, 'start_location': {'lat': 51.5137078, 'lng': -0.1200448}, 'travel_mode': 'DRIVING'}, {'distance': {'text': '0.2 km', 'value': 206}, 'duration': {'text': '1 min', 'value': 50}, 'end_location': {'lat': 51.51638999999999, 'lng': -0.1195499}, 'html_instructions': 'Turn <b>left</b> onto <b>Kingsway</b>/<wbr/><b>A4200</b>', 'maneuver': 'turn-left', 'polyline': {'points': 'cnlyHhdVEBE@GAE?C?IHkAx@YNYRs@`@o@`@i@ZMHEY'}, 'start_location': {'lat': 51.51473619999999, 'lng': -0.118608}, 'travel_mode': 'DRIVING'}], 'traffic_speed_entry': [], 'via_waypoint': []}], 'overview_polyline': {'points': 'amlyHxyVT\\\\fBdDJLLBHUl@eBb@sAVi@TYbCuCv@aAJQBIk@{AGSIOuB{AcAw@IP_A`DCHsB}B[YMGOa@[eBKDMAC?IHeBhAgDrBMHEY'}, 'summary': 'Kingsway/A4200', 'warnings': [], 'waypoint_order': []}], 'status': 'OK'}, 'parsed_response': {'google_speed': 3.972, 'google_polyline': 'amlyHxyVT\\\\fBdDJLLBHUl@eBb@sAVi@TYbCuCv@aAJQBIk@{AGSIOuB{AcAw@IP_A`DCHsB}B[YMGOa@[eBKDMAC?IHeBhAgDrBMHEY'}}", "('1684410058', '108252')": "{'path_nodes': ['1684410058', '108239', '25257028', '25256949', '168272', '108252'], 'path_polyline': 'aslyHly[pDgCdBiB\\\\a@tC{CxDaE', 'origin': {'id': '1684410058', 'x': 528632.2359216934, 'y': 181249.06604453287, 'lon': -0.1475942870992026, 'lat': 51.515528533240705, 's2_id': 5221390312863352989}, 'destination': {'id': '108252', 'x': 528858.8179076333, 'y': 180895.9103971371, 'lon': -0.14445968709974794, 'lat': 51.512303233241255, 's2_id': 5221366500350297403}, 'timestamp': 1637671582.669044, 'request_payload': {'geocoded_waypoints': [{'geocoder_status': 'OK', 'place_id': 'ChIJs40CVtMadkgRczZskLN41hg', 'types': ['street_address']}, {'geocoder_status': 'OK', 'place_id': 'ChIJIWaGpisFdkgREGxoox4noHo', 'types': ['street_address']}], 'routes': [{'bounds': {'northeast': {'lat': 51.5155393, 'lng': -0.1444639}, 'southwest': {'lat': 51.5123117, 'lng': -0.1475634}}, 'copyrights': 'Map data \u00a92021', 'legs': [{'distance': {'text': '0.4 km', 'value': 419}, 'duration': {'text': '2 mins', 'value': 129}, 'duration_in_traffic': {'text': '2 mins', 'value': 137}, 'end_address': '131-133 New Bond St, London W1S 2TB, UK', 'end_location': {'lat': 51.5123117, 'lng': -0.1444639}, 'start_address': '7 Vere St, London W1G 0DQ, UK', 'start_location': {'lat': 51.5155393, 'lng': -0.1475634}, 'steps': [{'distance': {'text': '0.1 km', 'value': 110}, 'duration': {'text': '1 min', 'value': 42}, 'end_location': {'lat': 51.514651, 'lng': -0.1468798}, 'html_instructions': 'Head <b>south</b> on <b>Vere St</b>/<wbr/><b>B406</b> toward <b>Chapel Pl</b>', 'polyline': {'points': 'cslyHfy[VG`@QFCDENKNMVWBCb@a@HK'}, 'start_location': {'lat': 51.5155393, 'lng': -0.1475634}, 'travel_mode': 'DRIVING'}, {'distance': {'text': '0.3 km', 'value': 309}, 'duration': {'text': '1 min', 'value': 87}, 'end_location': {'lat': 51.5123117, 'lng': -0.1444639}, 'html_instructions': 'Continue onto <b>New Bond St</b><div style=\"font-size:0.9em\">Leaving toll zone</div><div style=\"font-size:0.9em\">Entering toll zone</div>', 'polyline': {'points': 'qmlyH~t[n@i@BAPU\\\\a@^a@fAgAjAoAz@_Ar@s@LQz@}@@A'}, 'start_location': {'lat': 51.514651, 'lng': -0.1468798}, 'travel_mode': 'DRIVING'}], 'traffic_speed_entry': [], 'via_waypoint': []}], 'overview_polyline': {'points': 'cslyHfy[x@YLIz@u@l@m@r@k@n@w@fBiBhEuE|@_A'}, 'summary': 'Vere St/B406 and New Bond St', 'warnings': [], 'waypoint_order': []}], 'status': 'OK'}, 'parsed_response': {'google_speed': 3.0583941605839415, 'google_polyline': 'cslyHfy[x@YLIz@u@l@m@r@k@n@w@fBiBhEuE|@_A'}}", "('1666324135', '1619527465')": "{'path_nodes': ['1666324135', '1666324195', '1667203543', '1619527465'], 'path_polyline': '}ulyHrn\\\\{D~@sC\\\\w@H', 'origin': {'id': '1666324135', 'x': 528396.2909888483, 'y': 181294.51926065335, 'lon': -0.15097618710041255, 'lat': 51.51599063324059, 's2_id': 5221390310473183493}, 'destination': {'id': '1619527465', 'x': 528354.5593254959, 'y': 181511.07415274787, 'lon': -0.15149848709947827, 'lat': 51.517946233240274, 's2_id': 5221390308953911399}, 'timestamp': 1637671582.669066, 'request_payload': {'geocoded_waypoints': [{'geocoder_status': 'OK', 'place_id': 'ChIJv58GxNIadkgRLOmmQDnR4ww', 'types': ['street_address']}, {'geocoder_status': 'OK', 'place_id': 'ChIJq0NxZNIadkgReEF-A9vvnsY', 'types': ['street_address']}], 'routes': [{'bounds': {'northeast': {'lat': 51.5179462, 'lng': -0.1509804}, 'southwest': {'lat': 51.5159976, 'lng': -0.1514988}}, 'copyrights': 'Map data \u00a92021', 'legs': [{'distance': {'text': '0.2 km', 'value': 224}, 'duration': {'text': '1 min', 'value': 67}, 'duration_in_traffic': {'text': '1 min', 'value': 73}, 'end_address': '1 George St, London W1U 3QF, UK', 'end_location': {'lat': 51.5179462, 'lng': -0.1514988}, 'start_address': '77A Wigmore St, London W1U 1QF, UK', 'start_location': {'lat': 51.5159976, 'lng': -0.1509804}, 'steps': [{'distance': {'text': '0.2 km', 'value': 224}, 'duration': {'text': '1 min', 'value': 67}, 'end_location': {'lat': 51.5179462, 'lng': -0.1514988}, 'html_instructions': 'Head <b>north</b> on <b>Mandeville Pl</b>/<wbr/><b>B524</b> toward <b>Hinde St</b><div style=\"font-size:0.9em\">Continue to follow B524</div>', 'polyline': {'points': '_vlyHrn\\\\a@LOBSFa@LG@kAZAMg@HYFI@MBUBc@Fs@J'}, 'start_location': {'lat': 51.5159976, 'lng': -0.1509804}, 'travel_mode': 'DRIVING'}], 'traffic_speed_entry': [], 'via_waypoint': []}], 'overview_polyline': {'points': '_vlyHrn\\\\gBf@sA\\\\AMg@Hc@Hc@FwAR'}, 'summary': 'Mandeville Pl/B524 and Thayer St/B524', 'warnings': [], 'waypoint_order': []}], 'status': 'OK'}, 'parsed_response': {'google_speed': 3.0684931506849313, 'google_polyline': '_vlyHrn\\\\gBf@sA\\\\AMg@Hc@Hc@FwAR'}}", "('1666324135', '9791503')": "{'path_nodes': ['1666324135', '25532841', '25532842', '5517018162', '9791503'], 'path_polyline': '}ulyHrn\\\\vBg@lAc@|@[tAo@', 'origin': {'id': '1666324135', 'x': 528396.2909888483, 'y': 181294.51926065335, 'lon': -0.15097618710041255, 'lat': 51.51599063324059, 's2_id': 5221390310473183493}, 'destination': {'id': '9791503', 'x': 528453.4017745669, 'y': 181103.33456195047, 'lon': -0.15022318710111182, 'lat': 51.514259533240875, 's2_id': 5221366509608678675}, 'timestamp': 1637671582.669088, 'request_payload': {'geocoded_waypoints': [{'geocoder_status': 'OK', 'place_id': 'ChIJv58GxNIadkgRLOmmQDnR4ww', 'types': ['street_address']}, {'geocoder_status': 'OK', 'place_id': 'ChIJ0yLRJS0FdkgR5TrOLaSnq88', 'types': ['street_address']}], 'routes': [{'bounds': {'northeast': {'lat': 51.5159976, 'lng': -0.1502097}, 'southwest': {'lat': 51.514276, 'lng': -0.1510235}}, 'copyrights': 'Map data \u00a92021', 'legs': [{'distance': {'text': '0.2 km', 'value': 202}, 'duration': {'text': '1 min', 'value': 87}, 'duration_in_traffic': {'text': '1 min', 'value': 87}, 'end_address': '2 Gilbert St, London W1K 5HA, UK', 'end_location': {'lat': 51.514276, 'lng': -0.1502097}, 'start_address': '77A Wigmore St, London W1U 1QF, UK', 'start_location': {'lat': 51.5159976, 'lng': -0.1509804}, 'steps': [{'distance': {'text': '0.2 km', 'value': 202}, 'duration': {'text': '1 min', 'value': 87}, 'end_location': {'lat': 51.514276, 'lng': -0.1502097}, 'html_instructions': 'Head <b>south</b> on <b>James St</b>/<wbr/><b>B524</b> toward <b>James St</b>/<wbr/><b>B524</b><div style=\"font-size:0.9em\">Parts of this road are closed 11:00 AM \u2013 11:00 PM</div>', 'polyline': {'points': '_vlyHrn\\\\@FB?DABAJCDCHC\\\\Kl@QNIn@UJEb@M`@MLETK@ABCLKFEBA@?FE'}, 'start_location': {'lat': 51.5159976, 'lng': -0.1509804}, 'travel_mode': 'DRIVING'}], 'traffic_speed_entry': [], 'via_waypoint': []}], 'overview_polyline': {'points': '_vlyHrn\\\\@FB?DA^MjC}@~Ag@~@k@'}, 'summary': 'James St/B524', 'warnings': [], 'waypoint_order': []}], 'status': 'OK'}, 'parsed_response': {'google_speed': 2.32183908045977, 'google_polyline': '_vlyHrn\\\\@FB?DA^MjC}@~Ag@~@k@'}}", "('4356572322', '1616122178')": "{'path_nodes': ['4356572322', '1616122237', '1616122178'], 'path_polyline': 'qtlyHtsWzDqFp@qA', 'origin': {'id': '4356572322', 'x': 530116.5515434985, 'y': 181313.1831658283, 'lon': -0.12619148708967906, 'lat': 51.515765133240926, 's2_id': 5221390724501967751}, 'destination': {'id': '1616122178', 'x': 530232.2897525224, 'y': 181184.16290962603, 'lon': -0.12457208708967878, 'lat': 51.51457903324111, 's2_id': 5221366095264680241}, 'timestamp': 1637671582.669109, 'request_payload': {'geocoded_waypoints': [{'geocoder_status': 'OK', 'place_id': 'ChIJ4-Si1zIbdkgRu6aWHBngXeo', 'types': ['premise']}, {'geocoder_status': 'OK', 'place_id': 'ChIJQ7pjscwEdkgR_vVWGKmS2wk', 'types': ['street_address']}], 'routes': [{'bounds': {'northeast': {'lat': 51.5157683, 'lng': -0.1245694}, 'southwest': {'lat': 51.5145614, 'lng': -0.1262384}}, 'copyrights': 'Map data \u00a92021 Google', 'legs': [{'distance': {'text': '0.2 km', 'value': 183}, 'duration': {'text': '1 min', 'value': 64}, 'duration_in_traffic': {'text': '1 min', 'value': 67}, 'end_address': '29 Betterton St, London WC2H 9BQ, UK', 'end_location': {'lat': 51.5145771, 'lng': -0.1245694}, 'start_address': 'St Mungo Association, 83 Endell St, London WC2H 9DN, UK', 'start_location': {'lat': 51.5157683, 'lng': -0.1261938}, 'steps': [{'distance': {'text': '3 m', 'value': 3}, 'duration': {'text': '1 min', 'value': 1}, 'end_location': {'lat': 51.5157558, 'lng': -0.1262384}, 'html_instructions': 'Head <b>southwest</b> on <b>High Holborn</b> toward <b>Endell St</b>/<wbr/><b>B401</b>', 'polyline': {'points': 'qtlyHtsW@H'}, 'start_location': {'lat': 51.5157683, 'lng': -0.1261938}, 'travel_mode': 'DRIVING'}, {'distance': {'text': '0.2 km', 'value': 177}, 'duration': {'text': '1 min', 'value': 55}, 'end_location': {'lat': 51.5145614, 'lng': -0.1245977}, 'html_instructions': 'Turn <b>left</b> onto <b>Endell St</b>/<wbr/><b>B401</b><div style=\"font-size:0.9em\">Entering toll zone</div>', 'maneuver': 'turn-left', 'polyline': {'points': 'otlyH~sWPMFGRORQRWTYXk@JWf@oAt@iA'}, 'start_location': {'lat': 51.5157558, 'lng': -0.1262384}, 'travel_mode': 'DRIVING'}, {'distance': {'text': '3 m', 'value': 3}, 'duration': {'text': '1 min', 'value': 8}, 'end_location': {'lat': 51.5145771, 'lng': -0.1245694}, 'html_instructions': 'Turn <b>left</b> onto <b>Betterton St</b>', 'maneuver': 'turn-left', 'polyline': {'points': '_mlyHviWCE'}, 'start_location': {'lat': 51.5145614, 'lng': -0.1245977}, 'travel_mode': 'DRIVING'}], 'traffic_speed_entry': [], 'via_waypoint': []}], 'overview_polyline': {'points': 'qtlyHtsW@HPMZWf@i@n@eAJWf@oAt@iACE'}, 'summary': 'Endell St/B401', 'warnings': [], 'waypoint_order': []}], 'status': 'OK'}, 'parsed_response': {'google_speed': 2.7313432835820897, 'google_polyline': 'qtlyHtsW@HPMZWf@i@n@eAJWf@oAt@iACE'}}", "('110008', '108208')": "{'path_nodes': ['110008', '1612319339', '1612319349', '108209', '1610964470', '1667118171', '108208'], 'path_polyline': 'ypmyHhr]CWQaBMsAe@uIAiACuA', 'origin': {'id': '110008', 'x': 527987.5162014617, 'y': 181762.74365661351, 'lon': -0.1566941871003674, 'lat': 51.520291133239844, 's2_id': 5221390292694281737}, 'destination': {'id': '108208', 'x': 528232.1916799454, 'y': 181813.44509077538, 'lon': -0.15315118709857323, 'lat': 51.5206913332398, 's2_id': 5221390290123976625}, 'timestamp': 1637671582.66913, 'request_payload': {'geocoded_waypoints': [{'geocoder_status': 'OK', 'place_id': 'ChIJ07T8nc4adkgRaeDFBMPN3UU', 'types': ['street_address']}, {'geocoder_status': 'OK', 'place_id': 'ChIJ96UWBM4adkgRSfOJfq6jzbg', 'types': ['street_address']}], 'routes': [{'bounds': {'northeast': {'lat': 51.5207041, 'lng': -0.1531528}, 'southwest': {'lat': 51.5202943, 'lng': -0.1566956}}, 'copyrights': 'Map data \u00a92021', 'legs': [{'distance': {'text': '0.2 km', 'value': 250}, 'duration': {'text': '1 min', 'value': 63}, 'duration_in_traffic': {'text': '1 min', 'value': 67}, 'end_address': '53 Paddington St, London W1U 4HT, UK', 'end_location': {'lat': 51.5207041, 'lng': -0.1531528}, 'start_address': '89 Baker St, London W1U 6RJ, UK', 'start_location': {'lat': 51.5202943, 'lng': -0.1566956}, 'steps': [{'distance': {'text': '2 m', 'value': 2}, 'duration': {'text': '1 min', 'value': 1}, 'end_location': {'lat': 51.5203003, 'lng': -0.1566614}, 'html_instructions': 'Head <b>east</b> on <b>Crawford St</b> toward <b>Baker St</b>/<wbr/><b>A41</b>', 'polyline': {'points': 'ypmyHjr]AG'}, 'start_location': {'lat': 51.5202943, 'lng': -0.1566956}, 'travel_mode': 'DRIVING'}, {'distance': {'text': '0.2 km', 'value': 248}, 'duration': {'text': '1 min', 'value': 62}, 'end_location': {'lat': 51.5207041, 'lng': -0.1531528}, 'html_instructions': 'Continue onto <b>Paddington St</b>/<wbr/><b>B524</b>', 'polyline': {'points': '{pmyHbr]UmB?EOwAGu@Ky@AMAKAK?SAQGwC?QAw@AGAy@?Q'}, 'start_location': {'lat': 51.5203003, 'lng': -0.1566614}, 'travel_mode': 'DRIVING'}], 'traffic_speed_entry': [], 'via_waypoint': []}], 'overview_polyline': {'points': 'ypmyHjr]_A}IQuI?Q'}, 'summary': 'Paddington St/B524', 'warnings': [], 'waypoint_order': []}], 'status': 'OK'}, 'parsed_response': {'google_speed': 3.7313432835820897, 'google_polyline': 'ypmyHjr]_A}IQuI?Q'}}", "('311422343', '255566')": "{'path_nodes': ['311422343', '102005', '107343', '107345', '691084080', '1684410105', '255562', '255564', '1684410076', '255566'], 'path_polyline': 'cimyHfxZ^OzB{@`A[dA[|Ai@|Ai@jBm@z@YbA[', 'origin': {'id': '311422343', 'x': 528990.7943980636, 'y': 181651.66929955478, 'lon': -0.14228258709476566, 'lat': 51.5190649332402, 's2_id': 5221390324044305141}, 'destination': {'id': '255566', 'x': 529110.8165279367, 'y': 181255.83928485424, 'lon': -0.140698587096205, 'lat': 51.51548033324079, 's2_id': 5221390688019159091}, 'timestamp': 1637671582.6691499, 'request_payload': {'geocoded_waypoints': [{'geocoder_status': 'OK', 'place_id': 'ChIJS4To69UadkgRT2aNDZhCJNo', 'types': ['street_address']}, {'geocoder_status': 'OK', 'place_id': 'ChIJ02NlrCobdkgRA6oH_Y-RoHw', 'types': ['street_address']}], 'routes': [{'bounds': {'northeast': {'lat': 51.5190486, 'lng': -0.1407081}, 'southwest': {'lat': 51.5154943, 'lng': -0.1422563}}, 'copyrights': 'Map data \u00a92021', 'legs': [{'distance': {'text': '0.4 km', 'value': 410}, 'duration': {'text': '2 mins', 'value': 129}, 'duration_in_traffic': {'text': '2 mins', 'value': 127}, 'end_address': '227 Oxford St, London W1D 2LR, UK', 'end_location': {'lat': 51.5154943, 'lng': -0.1407081}, 'start_address': '100 Great Portland St, London W1W 6PE, UK', 'start_location': {'lat': 51.5190486, 'lng': -0.1422563}, 'steps': [{'distance': {'text': '0.4 km', 'value': 410}, 'duration': {'text': '2 mins', 'value': 129}, 'end_location': {'lat': 51.5154943, 'lng': -0.1407081}, 'html_instructions': 'Head <b>south</b> on <b>Great Portland St</b>/<wbr/><b>B506</b> toward <b>Langham St</b><div style=\"font-size:0.9em\">Continue to follow Great Portland St</div><div style=\"font-size:0.9em\">Entering toll zone</div><div style=\"font-size:0.9em\">Leaving toll zone</div><div style=\"font-size:0.9em\">Entering toll zone</div>', 'polyline': {'points': 'aimyHbxZZKRI\\\\MjAa@v@WHCp@WPGb@Mv@Yb@M`@OXIBAdA_@`@M`AYZK`@M'}, 'start_location': {'lat': 51.5190486, 'lng': -0.1422563}, 'travel_mode': 'DRIVING'}], 'traffic_speed_entry': [], 'via_waypoint': []}], 'overview_polyline': {'points': 'aimyHbxZ~GaCfH_C~Bs@'}, 'summary': 'Great Portland St', 'warnings': [], 'waypoint_order': []}], 'status': 'OK'}, 'parsed_response': {'google_speed': 3.2283464566929134, 'google_polyline': 'aimyHbxZ~GaCfH_C~Bs@'}}", "('305691975', '107877')": "{'path_nodes': ['305691975', '109348', '110269', '110270', '107877'], 'path_polyline': 'ygnyH~{VyC~AiCpAeCpAaD|A', 'origin': {'id': '305691975', 'x': 530356.2034866889, 'y': 182232.3510177004, 'lon': -0.12239998708313073, 'lat': 51.52397013323962, 's2_id': 5221390741976307405}, 'destination': {'id': '107877', 'x': 530225.3073599826, 'y': 182556.42574277206, 'lon': -0.12416598708215254, 'lat': 51.5269126332391, 's2_id': 5221390754930610347}, 'timestamp': 1637671582.669187, 'request_payload': {'geocoded_waypoints': [{'geocoder_status': 'OK', 'place_id': 'ChIJ18cEsDAbdkgRFIj9C93Q3Es', 'types': ['premise']}, {'geocoder_status': 'OK', 'place_id': 'ChIJjwiFaTobdkgRTdkKcMxn1jI', 'types': ['street_address']}], 'routes': [{'bounds': {'northeast': {'lat': 51.52691249999999, 'lng': -0.1224289}, 'southwest': {'lat': 51.52396299999999, 'lng': -0.1241774}}, 'copyrights': 'Map data \u00a92021', 'legs': [{'distance': {'text': '0.4 km', 'value': 350}, 'duration': {'text': '1 min', 'value': 85}, 'duration_in_traffic': {'text': '1 min', 'value': 83}, 'end_address': 'Norfolk Arms, 28 Leigh St, London WC1H 9EP, UK', 'end_location': {'lat': 51.52691249999999, 'lng': -0.1241774}, 'start_address': 'unit 57 Brunswick Square, London WC1N, UK', 'start_location': {'lat': 51.52396299999999, 'lng': -0.1224289}, 'steps': [{'distance': {'text': '0.1 km', 'value': 97}, 'duration': {'text': '1 min', 'value': 19}, 'end_location': {'lat': 51.5247749, 'lng': -0.1229462}, 'html_instructions': 'Head <b>northwest</b> on <b>Brunswick Square</b>', 'polyline': {'points': 'wgnyHd|VOHe@X[Pq@^]P'}, 'start_location': {'lat': 51.52396299999999, 'lng': -0.1224289}, 'travel_mode': 'DRIVING'}, {'distance': {'text': '0.2 km', 'value': 157}, 'duration': {'text': '1 min', 'value': 40}, 'end_location': {'lat': 51.5261007, 'lng': -0.1237171}, 'html_instructions': 'Continue onto <b>Hunter St</b>', 'polyline': {'points': 'ylnyHl_Wy@\\\\kAh@aBz@a@T'}, 'start_location': {'lat': 51.5247749, 'lng': -0.1229462}, 'travel_mode': 'DRIVING'}, {'distance': {'text': '0.1 km', 'value': 96}, 'duration': {'text': '1 min', 'value': 26}, 'end_location': {'lat': 51.52691249999999, 'lng': -0.1241774}, 'html_instructions': 'Continue onto <b>Judd St</b>', 'polyline': {'points': 'cunyHfdWE@eBz@MF[LKF'}, 'start_location': {'lat': 51.5261007, 'lng': -0.1237171}, 'travel_mode': 'DRIVING'}], 'traffic_speed_entry': [], 'via_waypoint': []}], 'overview_polyline': {'points': 'wgnyHd|VqAt@uExBoFnCu@\\\\'}, 'summary': 'Brunswick Square, Hunter St and Judd St', 'warnings': [], 'waypoint_order': []}], 'status': 'OK'}, 'parsed_response': {'google_speed': 4.216867469879518, 'google_polyline': 'wgnyHd|VqAt@uExBoFnCu@\\\\'}}", "('10574891', '452486132')": "{'path_nodes': ['10574891', '1678452823', '1678452820', '1678452811', '1678452807', '9513062', '25496899', '2476787985', '25544138', '25544135', '452486132'], 'path_polyline': '{plyHhxWlGJBIRB@LxCXp@?~CKcCwI_AuB{DwG', 'origin': {'id': '10574891', 'x': 530066.6953816533, 'y': 181247.26636238, 'lon': -0.12693388709035136, 'lat': 51.51518423324101, 's2_id': 5221390723075322255}, 'destination': {'id': '452486132', 'x': 530316.2083825651, 'y': 181099.19575368112, 'lon': -0.12339478708962881, 'lat': 51.51379613324128, 's2_id': 5221366094895935055}, 'timestamp': 1637671582.669208, 'request_payload': {'geocoded_waypoints': [{'geocoder_status': 'OK', 'place_id': 'ChIJyXR9Ms0EdkgRNsJVFOfHEc8', 'types': ['street_address']}, {'geocoder_status': 'OK', 'place_id': 'ChIJs9Jto8wEdkgRJaQqpqBgXDI', 'types': ['street_address']}], 'routes': [{'bounds': {'northeast': {'lat': 51.51517570000001, 'lng': -0.1233943}, 'southwest': {'lat': 51.5137992, 'lng': -0.1270077}}, 'copyrights': 'Map data \u00a92021 Google', 'legs': [{'distance': {'text': '0.5 km', 'value': 495}, 'duration': {'text': '3 mins', 'value': 182}, 'duration_in_traffic': {'text': '3 mins', 'value': 160}, 'end_address': '12 Odhams Walk, London WC2H 9SA, UK', 'end_location': {'lat': 51.5137992, 'lng': -0.1233943}, 'start_address': '188 Shaftesbury Ave, London WC2H 8JB, UK', 'start_location': {'lat': 51.51517570000001, 'lng': -0.1268912}, 'steps': [{'distance': {'text': '7 m', 'value': 7}, 'duration': {'text': '1 min', 'value': 2}, 'end_location': {'lat': 51.5151178, 'lng': -0.1269209}, 'html_instructions': 'Head <b>south</b> on <b>Shaftesbury Ave</b>/<wbr/><b>A400</b>/<wbr/><b>A401</b> toward <b>Monmouth St</b>/<wbr/><b>B404</b>', 'polyline': {'points': '{plyH`xWJD'}, 'start_location': {'lat': 51.51517570000001, 'lng': -0.1268912}, 'travel_mode': 'DRIVING'}, {'distance': {'text': '0.1 km', 'value': 146}, 'duration': {'text': '1 min', 'value': 53}, 'end_location': {'lat': 51.51383879999999, 'lng': -0.1270139}, 'html_instructions': 'Turn <b>left</b> onto <b>Monmouth St</b>/<wbr/><b>B404</b><div style=\"font-size:0.9em\">Entering toll zone</div><div style=\"font-size:0.9em\">Parts of this road are closed 10:00 AM \u2013 6:00 PM</div>', 'maneuver': 'turn-left', 'polyline': {'points': 'oplyHfxW@AJQD?B?~@FJ@v@FVDVBTDN@L@'}, 'start_location': {'lat': 51.5151178, 'lng': -0.1269209}, 'travel_mode': 'DRIVING'}, {'distance': {'text': '0.2 km', 'value': 182}, 'duration': {'text': '1 min', 'value': 78}, 'end_location': {'lat': 51.5148333, 'lng': -0.1249733}, 'html_instructions': \"At the roundabout, take the <b>1st</b> exit onto <b>Short's Gardens</b>\", 'maneuver': 'roundabout-left', 'polyline': {'points': 'ohlyHxxW?A?A?A?A?A@??A?A@AACSi@GQO[Oa@Wq@a@y@c@eAm@wA'}, 'start_location': {'lat': 51.51383879999999, 'lng': -0.1270139}, 'travel_mode': 'DRIVING'}, {'distance': {'text': '0.2 km', 'value': 160}, 'duration': {'text': '1 min', 'value': 49}, 'end_location': {'lat': 51.5137992, 'lng': -0.1233943}, 'html_instructions': 'Turn <b>right</b> onto <b>Endell St</b>/<wbr/><b>B401</b>', 'maneuver': 'turn-right', 'polyline': {'points': 'unlyH`lWt@iAPYVc@HKDK\\\\g@^m@P[BC@C@E@E@E@E?I'}, 'start_location': {'lat': 51.5148333, 'lng': -0.1249733}, 'travel_mode': 'DRIVING'}], 'traffic_speed_entry': [], 'via_waypoint': []}], 'overview_polyline': {'points': '{plyH`xWJDLStAH|BV\\\\B?C?E@C@Am@{AmBsEm@wAt@iAh@}@lAmBXi@D['}, 'summary': \"Monmouth St/B404, Short's Gardens and Endell St/B401\", 'warnings': [], 'waypoint_order': []}], 'status': 'OK'}, 'parsed_response': {'google_speed': 3.09375, 'google_polyline': '{plyH`xWJDLStAH|BV\\\\B?C?E@C@Am@{AmBsEm@wAt@iAh@}@lAmBXi@D['}}", "('107877', '305691975')": "{'path_nodes': ['107877', '110270', '110269', '109348', '305691975'], 'path_polyline': 'eznyH`gW`D}AdCqAhCqAxC_B', 'origin': {'id': '107877', 'x': 530225.3073599826, 'y': 182556.42574277206, 'lon': -0.12416598708215254, 'lat': 51.5269126332391, 's2_id': 5221390754930610347}, 'destination': {'id': '305691975', 'x': 530356.2034866889, 'y': 182232.3510177004, 'lon': -0.12239998708313073, 'lat': 51.52397013323962, 's2_id': 5221390741976307405}, 'timestamp': 1637671582.6692202, 'request_payload': {'geocoded_waypoints': [{'geocoder_status': 'OK', 'place_id': 'ChIJjwiFaTobdkgRTdkKcMxn1jI', 'types': ['street_address']}, {'geocoder_status': 'OK', 'place_id': 'ChIJ18cEsDAbdkgRFIj9C93Q3Es', 'types': ['premise']}], 'routes': [{'bounds': {'northeast': {'lat': 51.52691249999999, 'lng': -0.1224289}, 'southwest': {'lat': 51.52396299999999, 'lng': -0.1241774}}, 'copyrights': 'Map data \u00a92021', 'legs': [{'distance': {'text': '0.4 km', 'value': 350}, 'duration': {'text': '2 mins', 'value': 92}, 'duration_in_traffic': {'text': '1 min', 'value': 86}, 'end_address': 'unit 57 Brunswick Square, London WC1N, UK', 'end_location': {'lat': 51.52396299999999, 'lng': -0.1224289}, 'start_address': 'Norfolk Arms, 28 Leigh St, London WC1H 9EP, UK', 'start_location': {'lat': 51.52691249999999, 'lng': -0.1241774}, 'steps': [{'distance': {'text': '92 m', 'value': 92}, 'duration': {'text': '1 min', 'value': 28}, 'end_location': {'lat': 51.5261333, 'lng': -0.1237332}, 'html_instructions': 'Head <b>south</b> on <b>Judd St</b> toward <b>Wakefield Mews</b>', 'polyline': {'points': 'eznyHbgWJGZMLGdB{@'}, 'start_location': {'lat': 51.52691249999999, 'lng': -0.1241774}, 'travel_mode': 'DRIVING'}, {'distance': {'text': '0.2 km', 'value': 161}, 'duration': {'text': '1 min', 'value': 42}, 'end_location': {'lat': 51.5247749, 'lng': -0.1229462}, 'html_instructions': 'Continue onto <b>Hunter St</b>', 'polyline': {'points': 'iunyHhdWDA`@U`B{@jAi@x@]'}, 'start_location': {'lat': 51.5261333, 'lng': -0.1237332}, 'travel_mode': 'DRIVING'}, {'distance': {'text': '0.1 km', 'value': 97}, 'duration': {'text': '1 min', 'value': 22}, 'end_location': {'lat': 51.52396299999999, 'lng': -0.1224289}, 'html_instructions': 'Continue onto <b>Brunswick Square</b><div style=\"font-size:0.9em\">Destination will be on the left</div>', 'polyline': {'points': 'ylnyHl_W\\\\Qp@_@ZQd@YNI'}, 'start_location': {'lat': 51.5247749, 'lng': -0.1229462}, 'travel_mode': 'DRIVING'}], 'traffic_speed_entry': [], 'via_waypoint': []}], 'overview_polyline': {'points': 'eznyHbgWzCyAtE}BvAo@lAq@t@c@'}, 'summary': 'Judd St, Hunter St and Brunswick Square', 'warnings': [], 'waypoint_order': []}], 'status': 'OK'}, 'parsed_response': {'google_speed': 4.069767441860465, 'google_polyline': 'eznyHbgWzCyAtE}BvAo@lAq@t@c@'}}", "('5560599870', '1619527499')": "{'path_nodes': ['5560599870', '101995', '1619500464', '102003', '1619527499'], 'path_polyline': 'gsmyHft\\\\lCQVCxF_@j@G', 'origin': {'id': '5560599870', 'x': 528320.2692946942, 'y': 181814.06644076837, 'lon': -0.15188218709802234, 'lat': 51.52067693323983, 's2_id': 5221390306965404305}, 'destination': {'id': '1619527499', 'x': 528348.6476746706, 'y': 181559.31827725726, 'lon': -0.15156608709925024, 'lat': 51.5183811332402, 's2_id': 5221390308991970271}, 'timestamp': 1637671582.6692321, 'request_payload': {'geocoded_waypoints': [{'geocoder_status': 'OK', 'place_id': 'ChIJl9pD-tEadkgR6khqf5XUEd4', 'types': ['street_address']}, {'geocoder_status': 'OK', 'place_id': 'ChIJISpFadIadkgR7Nza08OKQZ4', 'types': ['clothing_store', 'establishment', 'gym', 'health', 'point_of_interest', 'store']}], 'routes': [{'bounds': {'northeast': {'lat': 51.5206616, 'lng': -0.1515637}, 'southwest': {'lat': 51.51838129999999, 'lng': -0.1518771}}, 'copyrights': 'Map data \u00a92021', 'legs': [{'distance': {'text': '0.3 km', 'value': 255}, 'duration': {'text': '1 min', 'value': 60}, 'duration_in_traffic': {'text': '1 min', 'value': 64}, 'end_address': '3 Marylebone High St, London W1U 4NG, UK', 'end_location': {'lat': 51.51838129999999, 'lng': -0.1515637}, 'start_address': '81 Marylebone High St, London W1U 4QJ, UK', 'start_location': {'lat': 51.5206616, 'lng': -0.1518771}, 'steps': [{'distance': {'text': '0.3 km', 'value': 255}, 'duration': {'text': '1 min', 'value': 60}, 'end_location': {'lat': 51.51838129999999, 'lng': -0.1515637}, 'html_instructions': 'Head <b>south</b> on <b>Marylebone High St</b>/<wbr/><b>B524</b> toward <b>Weymouth St</b><div style=\"font-size:0.9em\">Parts of this road may be closed at certain times or days</div>', 'polyline': {'points': 'csmyHft\\\\tAKp@GVAJ?rBOx@Gb@EXAZEPA@A'}, 'start_location': {'lat': 51.5206616, 'lng': -0.1518771}, 'travel_mode': 'DRIVING'}], 'traffic_speed_entry': [], 'via_waypoint': []}], 'overview_polyline': {'points': 'csmyHft\\\\vKu@n@I'}, 'summary': 'Marylebone High St/B524', 'warnings': [], 'waypoint_order': []}], 'status': 'OK'}, 'parsed_response': {'google_speed': 3.984375, 'google_polyline': 'csmyHft\\\\vKu@n@I'}}", "('5560599870', '108208')": "{'path_nodes': ['5560599870', '1619316059', '1619316041', '108208'], 'path_polyline': 'gsmyHft\\\\M\\\\HfD@v@', 'origin': {'id': '5560599870', 'x': 528320.2692946942, 'y': 181814.06644076837, 'lon': -0.15188218709802234, 'lat': 51.52067693323983, 's2_id': 5221390306965404305}, 'destination': {'id': '108208', 'x': 528232.1916799454, 'y': 181813.44509077538, 'lon': -0.15315118709857323, 'lat': 51.5206913332398, 's2_id': 5221390290123976625}, 'timestamp': 1637671582.6692438, 'request_payload': {'geocoded_waypoints': [{'geocoder_status': 'OK', 'place_id': 'ChIJl9pD-tEadkgR6khqf5XUEd4', 'types': ['street_address']}, {'geocoder_status': 'OK', 'place_id': 'ChIJ96UWBM4adkgRSfOJfq6jzbg', 'types': ['street_address']}], 'routes': [{'bounds': {'northeast': {'lat': 51.5207497, 'lng': -0.1518771}, 'southwest': {'lat': 51.5206616, 'lng': -0.1531528}}, 'copyrights': 'Map data \u00a92021', 'legs': [{'distance': {'text': '94 m', 'value': 94}, 'duration': {'text': '1 min', 'value': 21}, 'duration_in_traffic': {'text': '1 min', 'value': 21}, 'end_address': '53 Paddington St, London W1U 4HT, UK', 'end_location': {'lat': 51.5207041, 'lng': -0.1531528}, 'start_address': '81 Marylebone High St, London W1U 4QJ, UK', 'start_location': {'lat': 51.5206616, 'lng': -0.1518771}, 'steps': [{'distance': {'text': '94 m', 'value': 94}, 'duration': {'text': '1 min', 'value': 21}, 'end_location': {'lat': 51.5207041, 'lng': -0.1531528}, 'html_instructions': 'Head <b>northwest</b> on <b>Paddington St</b>/<wbr/><b>B524</b> toward <b>Grotto Passage</b>', 'polyline': {'points': 'csmyHft\\\\EBC@ABA@?@A@?@AD?BAFF`D@V@^'}, 'start_location': {'lat': 51.5206616, 'lng': -0.1518771}, 'travel_mode': 'DRIVING'}], 'traffic_speed_entry': [], 'via_waypoint': []}], 'overview_polyline': {'points': 'csmyHft\\\\MJCJHdF'}, 'summary': 'Paddington St/B524', 'warnings': [], 'waypoint_order': []}], 'status': 'OK'}, 'parsed_response': {'google_speed': 4.476190476190476, 'google_polyline': 'csmyHft\\\\MJCJHdF'}}", "('3943984251', '107865')": "{'path_nodes': ['3943984251', '12689153', '107865'], 'path_polyline': 'uanyHpxVpBfNr@dC', 'origin': {'id': '3943984251', 'x': 530397.3803992561, 'y': 182123.92247810628, 'lon': -0.12184688708347477, 'lat': 51.522986233239784, 's2_id': 5221390741548489905}, 'destination': {'id': '107865', 'x': 530183.7334667961, 'y': 182026.20598506153, 'lon': -0.12496068708533102, 'lat': 51.52215733323993, 's2_id': 5221390715644839313}, 'timestamp': 1637671582.669256, 'request_payload': {'geocoded_waypoints': [{'geocoder_status': 'OK', 'place_id': 'ChIJmUJ0IDcbdkgRfqMCaWJe0To', 'types': ['premise']}, {'geocoder_status': 'OK', 'place_id': 'ChIJX4T1LzEbdkgR68ETHgIffIQ', 'types': ['street_address']}], 'routes': [{'bounds': {'northeast': {'lat': 51.5229976, 'lng': -0.121842}, 'southwest': {'lat': 51.5221667, 'lng': -0.1249807}}, 'copyrights': 'Map data \u00a92021 Google', 'legs': [{'distance': {'text': '0.2 km', 'value': 238}, 'duration': {'text': '1 min', 'value': 54}, 'duration_in_traffic': {'text': '1 min', 'value': 59}, 'end_address': '72 Russell Square, London WC1B 5BA, UK', 'end_location': {'lat': 51.5221667, 'lng': -0.1249807}, 'start_address': '50 Guilford St, London WC1N 1DE, UK', 'start_location': {'lat': 51.5229976, 'lng': -0.121842}, 'steps': [{'distance': {'text': '0.2 km', 'value': 238}, 'duration': {'text': '1 min', 'value': 54}, 'end_location': {'lat': 51.5221667, 'lng': -0.1249807}, 'html_instructions': \"Head <b>west</b> on <b>Guilford St</b>/<wbr/><b>B502</b> toward <b>Queen Anne's Walk</b>\", 'polyline': {'points': 'wanyHnxVT~ATfBV`BVjB?BPlAHd@@D@B@HBHPb@Pb@'}, 'start_location': {'lat': 51.5229976, 'lng': -0.121842}, 'travel_mode': 'DRIVING'}], 'traffic_speed_entry': [], 'via_waypoint': []}], 'overview_polyline': {'points': 'wanyHnxVxBrOXz@Pb@'}, 'summary': 'Guilford St/B502', 'warnings': [], 'waypoint_order': []}], 'status': 'OK'}, 'parsed_response': {'google_speed': 4.033898305084746, 'google_polyline': 'wanyHnxVxBrOXz@Pb@'}}", "('3085109046', '3943984250')": "{'path_nodes': ['3085109046', '3085109045', '319840216', '10703293', '5762492068', '5762492058', '108909', '12443172', '109826', '109827', '893428750', '25475744', '12026763', '3943984250'], 'path_polyline': 'kunyHjcUZh@l@`Ax@fAPPDDdEvHThA^hCt@jFF`@l@lEJv@f@nD', 'origin': {'id': '3085109046', 'x': 530978.6481179734, 'y': 182489.49950808723, 'lon': -0.11333758707787478, 'lat': 51.526137133239374, 's2_id': 5221390806464305045}, 'destination': {'id': '3943984250', 'x': 530488.4049059168, 'y': 182160.76664384146, 'lon': -0.12052198708270978, 'lat': 51.523296333239756, 's2_id': 5221390741138110379}, 'timestamp': 1637671582.669271, 'request_payload': {'geocoded_waypoints': [{'geocoder_status': 'OK', 'place_id': 'ChIJKd1BTXaFdUgRe5Tu6uX8iCA', 'types': ['beauty_salon', 'establishment', 'point_of_interest', 'spa']}, {'geocoder_status': 'OK', 'place_id': 'ChIJwRAECDcbdkgRTWJ3XAbZzUI', 'types': ['premise']}], 'routes': [{'bounds': {'northeast': {'lat': 51.5261409, 'lng': -0.1133438}, 'southwest': {'lat': 51.52330389999999, 'lng': -0.1205266}}, 'copyrights': 'Map data \u00a92021 Google', 'legs': [{'distance': {'text': '0.6 km', 'value': 609}, 'duration': {'text': '2 mins', 'value': 129}, 'duration_in_traffic': {'text': '2 mins', 'value': 149}, 'end_address': '93 Guilford St, London WC1N 1DN, UK', 'end_location': {'lat': 51.52330389999999, 'lng': -0.1205266}, 'start_address': \"1 King's Cross Rd, London WC1X 9HX, UK\", 'start_location': {'lat': 51.5261409, 'lng': -0.1133438}, 'steps': [{'distance': {'text': '0.6 km', 'value': 609}, 'duration': {'text': '2 mins', 'value': 129}, 'end_location': {'lat': 51.52330389999999, 'lng': -0.1205266}, 'html_instructions': 'Head <b>southwest</b> on <b>Calthorpe St</b>/<wbr/><b>B502</b> toward <b>Pakenham St</b><div style=\"font-size:0.9em\">Continue to follow B502</div>', 'polyline': {'points': 'kunyHjcUXh@Zh@TZLRJLDFBDPNXZz@|@FHVTBDBDDFHTp@jBTl@FNDN@HJh@VlBHf@^pCRxAH`@Db@PfABLPrADVD`@DZPjAHd@F`@'}, 'start_location': {'lat': 51.5261409, 'lng': -0.1133438}, 'travel_mode': 'DRIVING'}], 'traffic_speed_entry': [], 'via_waypoint': []}], 'overview_polyline': {'points': 'kunyHjcUt@rAb@n@f@j@tBxBVh@tAxDn@hEpBrNn@pE'}, 'summary': 'B502', 'warnings': [], 'waypoint_order': []}], 'status': 'OK'}, 'parsed_response': {'google_speed': 4.087248322147651, 'google_polyline': 'kunyHjcUt@rAb@n@f@j@tBxBVh@tAxDn@hEpBrNn@pE'}}", "('1616122178', '452486132')": "{'path_nodes': ['1616122178', '1616122145', '452486132'], 'path_polyline': 'cmlyHpiWv@cAbBgD', 'origin': {'id': '1616122178', 'x': 530232.2897525224, 'y': 181184.16290962603, 'lon': -0.12457208708967878, 'lat': 51.51457903324111, 's2_id': 5221366095264680241}, 'destination': {'id': '452486132', 'x': 530316.2083825651, 'y': 181099.19575368112, 'lon': -0.12339478708962881, 'lat': 51.51379613324128, 's2_id': 5221366094895935055}, 'timestamp': 1637671582.669288, 'request_payload': {'geocoded_waypoints': [{'geocoder_status': 'OK', 'place_id': 'ChIJQ7pjscwEdkgR_vVWGKmS2wk', 'types': ['street_address']}, {'geocoder_status': 'OK', 'place_id': 'ChIJs9Jto8wEdkgRJaQqpqBgXDI', 'types': ['street_address']}], 'routes': [{'bounds': {'northeast': {'lat': 51.51559169999999, 'lng': -0.123203}, 'southwest': {'lat': 51.5137992, 'lng': -0.1249733}}, 'copyrights': 'Map data \u00a92021 Google', 'legs': [{'distance': {'text': '0.5 km', 'value': 454}, 'duration': {'text': '2 mins', 'value': 133}, 'duration_in_traffic': {'text': '2 mins', 'value': 114}, 'end_address': '12 Odhams Walk, London WC2H 9SA, UK', 'end_location': {'lat': 51.5137992, 'lng': -0.1233943}, 'start_address': '29 Betterton St, London WC2H 9BQ, UK', 'start_location': {'lat': 51.5145771, 'lng': -0.1245694}, 'steps': [{'distance': {'text': '0.1 km', 'value': 129}, 'duration': {'text': '1 min', 'value': 36}, 'end_location': {'lat': 51.5153642, 'lng': -0.123203}, 'html_instructions': 'Head <b>northeast</b> on <b>Betterton St</b> toward <b>Drury Ln</b>', 'polyline': {'points': 'cmlyHpiWe@eAEGEEEIKUAEAEIOCIg@eA]q@'}, 'start_location': {'lat': 51.5145771, 'lng': -0.1245694}, 'travel_mode': 'DRIVING'}, {'distance': {'text': '34 m', 'value': 34}, 'duration': {'text': '1 min', 'value': 12}, 'end_location': {'lat': 51.51559169999999, 'lng': -0.12352}, 'html_instructions': 'Turn <b>left</b> onto <b>Drury Ln</b>', 'maneuver': 'turn-left', 'polyline': {'points': '_rlyH~`WS\\\\Y`@'}, 'start_location': {'lat': 51.5153642, 'lng': -0.123203}, 'travel_mode': 'DRIVING'}, {'distance': {'text': '0.1 km', 'value': 131}, 'duration': {'text': '1 min', 'value': 37}, 'end_location': {'lat': 51.5148333, 'lng': -0.1249733}, 'html_instructions': \"Turn <b>left</b> onto <b>Short's Gardens</b>\", 'maneuver': 'turn-left', 'polyline': {'points': 'mslyH~bWZz@d@hAtAzC'}, 'start_location': {'lat': 51.51559169999999, 'lng': -0.12352}, 'travel_mode': 'DRIVING'}, {'distance': {'text': '0.2 km', 'value': 160}, 'duration': {'text': '1 min', 'value': 48}, 'end_location': {'lat': 51.5137992, 'lng': -0.1233943}, 'html_instructions': 'Turn <b>left</b> onto <b>Endell St</b>/<wbr/><b>B401</b>', 'maneuver': 'turn-left', 'polyline': {'points': 'unlyH`lWt@iAPYVc@HKDK\\\\g@^m@P[BC@C@E@E@E@E?I'}, 'start_location': {'lat': 51.5148333, 'lng': -0.1249733}, 'travel_mode': 'DRIVING'}], 'traffic_speed_entry': [], 'via_waypoint': []}], 'overview_polyline': {'points': 'cmlyHpiWk@mAKOYq@k@oA]q@S\\\\Y`@Zz@zBdFhBsCtA}BHSBU'}, 'summary': \"Betterton St, Short's Gardens and Endell St/B401\", 'warnings': [], 'waypoint_order': []}], 'status': 'OK'}, 'parsed_response': {'google_speed': 3.982456140350877, 'google_polyline': 'cmlyHpiWk@mAKOYq@k@oA]q@S\\\\Y`@Zz@zBdFhBsCtA}BHSBU'}}", "('108208', '110008')": "{'path_nodes': ['108208', '1667118171', '1610964470', '108209', '1612319349', '1612319339', '110008'], 'path_polyline': 'ismyHd|\\\\BtA@hAd@tILrAP`BBV', 'origin': {'id': '108208', 'x': 528232.1916799454, 'y': 181813.44509077538, 'lon': -0.15315118709857323, 'lat': 51.5206913332398, 's2_id': 5221390290123976625}, 'destination': {'id': '110008', 'x': 527987.5162014617, 'y': 181762.74365661351, 'lon': -0.1566941871003674, 'lat': 51.520291133239844, 's2_id': 5221390292694281737}, 'timestamp': 1637671582.6693041, 'request_payload': {'geocoded_waypoints': [{'geocoder_status': 'OK', 'place_id': 'ChIJ96UWBM4adkgRSfOJfq6jzbg', 'types': ['street_address']}, {'geocoder_status': 'OK', 'place_id': 'ChIJ07T8nc4adkgRaeDFBMPN3UU', 'types': ['street_address']}], 'routes': [{'bounds': {'northeast': {'lat': 51.5207041, 'lng': -0.1531528}, 'southwest': {'lat': 51.5202943, 'lng': -0.1566956}}, 'copyrights': 'Map data \u00a92021', 'legs': [{'distance': {'text': '0.2 km', 'value': 250}, 'duration': {'text': '1 min', 'value': 76}, 'duration_in_traffic': {'text': '1 min', 'value': 81}, 'end_address': '89 Baker St, London W1U 6RJ, UK', 'end_location': {'lat': 51.5202943, 'lng': -0.1566956}, 'start_address': '53 Paddington St, London W1U 4HT, UK', 'start_location': {'lat': 51.5207041, 'lng': -0.1531528}, 'steps': [{'distance': {'text': '0.2 km', 'value': 248}, 'duration': {'text': '1 min', 'value': 72}, 'end_location': {'lat': 51.5203003, 'lng': -0.1566614}, 'html_instructions': 'Head <b>west</b> on <b>Paddington St</b>/<wbr/><b>B524</b> toward <b>Ashland Pl</b>', 'polyline': {'points': 'ksmyHd|\\\\?P@x@@F@v@?PFvC@P?R@J@J@LJx@Ft@NvA?DTlB'}, 'start_location': {'lat': 51.5207041, 'lng': -0.1531528}, 'travel_mode': 'DRIVING'}, {'distance': {'text': '2 m', 'value': 2}, 'duration': {'text': '1 min', 'value': 4}, 'end_location': {'lat': 51.5202943, 'lng': -0.1566956}, 'html_instructions': 'Continue onto <b>Crawford St</b>', 'polyline': {'points': '{pmyHbr]@F'}, 'start_location': {'lat': 51.5203003, 'lng': -0.1566614}, 'travel_mode': 'DRIVING'}], 'traffic_speed_entry': [], 'via_waypoint': []}], 'overview_polyline': {'points': 'ksmyHd|\\\\NzI~@`J@F'}, 'summary': 'Paddington St/B524', 'warnings': [], 'waypoint_order': []}], 'status': 'OK'}, 'parsed_response': {'google_speed': 3.0864197530864197, 'google_polyline': 'ksmyHd|\\\\NzI~@`J@F'}}", "('108208', '5560599870')": "{'path_nodes': ['108208', '6342450111', '108210', '1667118184', '5560616885', '25500809', '21651765', '108212', '5560599870'], 'path_polyline': 'ismyHd|\\\\OYkBJAkBCqBFGv@?h@CXE', 'origin': {'id': '108208', 'x': 528232.1916799454, 'y': 181813.44509077538, 'lon': -0.15315118709857323, 'lat': 51.5206913332398, 's2_id': 5221390290123976625}, 'destination': {'id': '5560599870', 'x': 528320.2692946942, 'y': 181814.06644076837, 'lon': -0.15188218709802234, 'lat': 51.52067693323983, 's2_id': 5221390306965404305}, 'timestamp': 1637671582.669323, 'request_payload': {'geocoded_waypoints': [{'geocoder_status': 'OK', 'place_id': 'ChIJ96UWBM4adkgRSfOJfq6jzbg', 'types': ['street_address']}, {'geocoder_status': 'OK', 'place_id': 'ChIJl9pD-tEadkgR6khqf5XUEd4', 'types': ['street_address']}], 'routes': [{'bounds': {'northeast': {'lat': 51.5213587, 'lng': -0.1518517}, 'southwest': {'lat': 51.5206969, 'lng': -0.1531528}}, 'copyrights': 'Map data \u00a92021', 'legs': [{'distance': {'text': '0.2 km', 'value': 229}, 'duration': {'text': '1 min', 'value': 57}, 'duration_in_traffic': {'text': '1 min', 'value': 55}, 'end_address': '81 Marylebone High St, London W1U 4QJ, UK', 'end_location': {'lat': 51.5206969, 'lng': -0.1518517}, 'start_address': '53 Paddington St, London W1U 4HT, UK', 'start_location': {'lat': 51.5207041, 'lng': -0.1531528}, 'steps': [{'distance': {'text': '12 m', 'value': 12}, 'duration': {'text': '1 min', 'value': 3}, 'end_location': {'lat': 51.5207123, 'lng': -0.1529858}, 'html_instructions': 'Head <b>east</b> on <b>Paddington St</b>/<wbr/><b>B524</b> toward <b>Nottingham Pl</b>', 'polyline': {'points': 'ksmyHd|\\\\A_@'}, 'start_location': {'lat': 51.5207041, 'lng': -0.1531528}, 'travel_mode': 'DRIVING'}, {'distance': {'text': '67 m', 'value': 67}, 'duration': {'text': '1 min', 'value': 15}, 'end_location': {'lat': 51.5213157, 'lng': -0.1530725}, 'html_instructions': '<b>Paddington St</b>/<wbr/><b>B524</b> turns <b>left</b> and becomes <b>Nottingham Pl</b>', 'polyline': {'points': 'msmyHd{\\\\U@q@Fc@DM?'}, 'start_location': {'lat': 51.5207123, 'lng': -0.1529858}, 'travel_mode': 'DRIVING'}, {'distance': {'text': '70 m', 'value': 70}, 'duration': {'text': '1 min', 'value': 18}, 'end_location': {'lat': 51.5213587, 'lng': -0.1520572}, 'html_instructions': 'Turn <b>right</b> onto <b>Nottingham St</b><div style=\"font-size:0.9em\">Leaving toll zone</div>', 'maneuver': 'turn-right', 'polyline': {'points': 'gwmyHt{\\\\?GCaBC_B'}, 'start_location': {'lat': 51.5213157, 'lng': -0.1530725}, 'travel_mode': 'DRIVING'}, {'distance': {'text': '13 m', 'value': 13}, 'duration': {'text': '1 min', 'value': 4}, 'end_location': {'lat': 51.5212898, 'lng': -0.1519106}, 'html_instructions': 'Turn <b>right</b> to stay on <b>Nottingham St</b><div style=\"font-size:0.9em\">Entering toll zone</div>', 'maneuver': 'turn-right', 'polyline': {'points': 'owmyHju\\\\BKBG@CBE'}, 'start_location': {'lat': 51.5213587, 'lng': -0.1520572}, 'travel_mode': 'DRIVING'}, {'distance': {'text': '67 m', 'value': 67}, 'duration': {'text': '1 min', 'value': 17}, 'end_location': {'lat': 51.5206969, 'lng': -0.1518517}, 'html_instructions': 'Turn <b>right</b> onto <b>Marylebone High St</b>', 'maneuver': 'turn-right', 'polyline': {'points': 'awmyHlt\\\\F@D?N@RAN?NCFEDAFAB?D?B?'}, 'start_location': {'lat': 51.5212898, 'lng': -0.1519106}, 'travel_mode': 'DRIVING'}], 'traffic_speed_entry': [], 'via_waypoint': []}], 'overview_polyline': {'points': 'ksmyHd|\\\\A_@U@uALM??GGaEL]L@b@?^CLGTA'}, 'summary': 'Nottingham Pl and Marylebone High St', 'warnings': [], 'waypoint_order': []}], 'status': 'OK'}, 'parsed_response': {'google_speed': 4.163636363636364, 'google_polyline': 'ksmyHd|\\\\A_@U@uALM??GGaEL]L@b@?^CLGTA'}}", "('1614978621', '351788581')": "{'path_nodes': ['1614978621', '455705622', '9475528', '2441993346', '21704017', '351788581'], 'path_polyline': 'kxlyH`jVD\\\\fBlD|DlFB@z@x@', 'origin': {'id': '1614978621', 'x': 530576.8274248724, 'y': 181393.9033903911, 'lon': -0.11953208708639783, 'lat': 51.5163844332409, 's2_id': 5221390732826561719}, 'destination': {'id': '351788581', 'x': 530408.2266209685, 'y': 181187.08346980734, 'lon': -0.12203698708857721, 'lat': 51.514564733241166, 's2_id': 5221366089140130631}, 'timestamp': 1637671582.669343, 'request_payload': {'geocoded_waypoints': [{'geocoder_status': 'OK', 'place_id': 'ChIJyf-1bDUbdkgRPXzY5S3KuqI', 'types': ['street_address']}, {'geocoder_status': 'OK', 'place_id': 'ChIJ_dwjTssEdkgRiFkpcNxtMhM', 'types': ['street_address']}], 'routes': [{'bounds': {'northeast': {'lat': 51.51638999999999, 'lng': -0.1195499}, 'southwest': {'lat': 51.5145685, 'lng': -0.122045}}, 'copyrights': 'Map data \u00a92021 Google', 'legs': [{'distance': {'text': '0.3 km', 'value': 273}, 'duration': {'text': '1 min', 'value': 68}, 'duration_in_traffic': {'text': '1 min', 'value': 70}, 'end_address': '78 Long Acre, London WC2E 9NG, UK', 'end_location': {'lat': 51.5145685, 'lng': -0.122045}, 'start_address': '60 Kingsway, London WC2B 6DS, UK', 'start_location': {'lat': 51.51638999999999, 'lng': -0.1195499}, 'steps': [{'distance': {'text': '0.3 km', 'value': 273}, 'duration': {'text': '1 min', 'value': 68}, 'end_location': {'lat': 51.5145685, 'lng': -0.122045}, 'html_instructions': 'Head <b>southwest</b> on <b>Great Queen St</b>/<wbr/><b>B402</b> toward <b>Kingsway</b>/<wbr/><b>A4200</b><div style=\"font-size:0.9em\">Continue to follow B402</div><div style=\"font-size:0.9em\">Leaving toll zone in 270&nbsp;m at Drury Ln</div>', 'polyline': {'points': 'mxlyHdjVDX@DBBd@`ABFh@dAFLLX@@LVT^FJb@p@NTDHFHX`@BBDF@@FHB@@@@?@AHA@?B?@?B@@@@@DDh@h@BD'}, 'start_location': {'lat': 51.51638999999999, 'lng': -0.1195499}, 'travel_mode': 'DRIVING'}], 'traffic_speed_entry': [], 'via_waypoint': []}], 'overview_polyline': {'points': 'mxlyHdjVF^h@dAbAtBnB`Dd@n@NLPCHDr@t@'}, 'summary': 'B402', 'warnings': [], 'waypoint_order': []}], 'status': 'OK'}, 'parsed_response': {'google_speed': 3.9, 'google_polyline': 'mxlyHdjVF^h@dAbAtBnB`Dd@n@NLPCHDr@t@'}}", "('1619527465', '1666324135')": "{'path_nodes': ['1619527465', '1667203543', '1666324195', '1666324135'], 'path_polyline': 'ebmyHzq\\\\v@IrC]zD_A', 'origin': {'id': '1619527465', 'x': 528354.5593254959, 'y': 181511.07415274787, 'lon': -0.15149848709947827, 'lat': 51.517946233240274, 's2_id': 5221390308953911399}, 'destination': {'id': '1666324135', 'x': 528396.2909888483, 'y': 181294.51926065335, 'lon': -0.15097618710041255, 'lat': 51.51599063324059, 's2_id': 5221390310473183493}, 'timestamp': 1637671582.6693661, 'request_payload': {'geocoded_waypoints': [{'geocoder_status': 'OK', 'place_id': 'ChIJq0NxZNIadkgReEF-A9vvnsY', 'types': ['street_address']}, {'geocoder_status': 'OK', 'place_id': 'ChIJv58GxNIadkgRLOmmQDnR4ww', 'types': ['street_address']}], 'routes': [{'bounds': {'northeast': {'lat': 51.5179462, 'lng': -0.1509804}, 'southwest': {'lat': 51.5159976, 'lng': -0.1514988}}, 'copyrights': 'Map data \u00a92021', 'legs': [{'distance': {'text': '0.2 km', 'value': 224}, 'duration': {'text': '1 min', 'value': 64}, 'duration_in_traffic': {'text': '1 min', 'value': 70}, 'end_address': '77A Wigmore St, London W1U 1QF, UK', 'end_location': {'lat': 51.5159976, 'lng': -0.1509804}, 'start_address': '1 George St, London W1U 3QF, UK', 'start_location': {'lat': 51.5179462, 'lng': -0.1514988}, 'steps': [{'distance': {'text': '0.2 km', 'value': 224}, 'duration': {'text': '1 min', 'value': 64}, 'end_location': {'lat': 51.5159976, 'lng': -0.1509804}, 'html_instructions': 'Head <b>south</b> on <b>Thayer St</b>/<wbr/><b>B524</b> toward <b>Bulstrode St</b><div style=\"font-size:0.9em\">Continue to follow B524</div>', 'polyline': {'points': 'ebmyHzq\\\\r@Kb@GTCLCHAXGf@I@LjA[FA`@MRGNC`@M'}, 'start_location': {'lat': 51.5179462, 'lng': -0.1514988}, 'travel_mode': 'DRIVING'}], 'traffic_speed_entry': [], 'via_waypoint': []}], 'overview_polyline': {'points': 'ebmyHzq\\\\zB[b@If@I@LrA]t@Up@Q'}, 'summary': 'Thayer St/B524 and Mandeville Pl/B524', 'warnings': [], 'waypoint_order': []}], 'status': 'OK'}, 'parsed_response': {'google_speed': 3.2, 'google_polyline': 'ebmyHzq\\\\zB[b@If@I@LrA]t@Up@Q'}}", "('107848', '107842')": "{'path_nodes': ['107848', '6477034137', '107842'], 'path_polyline': 'uhmyH`sXGOaCsH', 'origin': {'id': '107848', 'x': 529759.3082895541, 'y': 181663.1699073442, 'lon': -0.13120828708995377, 'lat': 51.51899243324034, 's2_id': 5221390701409839275}, 'destination': {'id': '107842', 'x': 529869.4437073416, 'y': 181742.90904576948, 'lon': -0.1295924870888332, 'lat': 51.51968373324025, 's2_id': 5221390702256103647}, 'timestamp': 1637671582.669388, 'request_payload': {'geocoded_waypoints': [{'geocoder_status': 'OK', 'place_id': 'ChIJmz3lxi0bdkgRf8y8Qd6CXsc', 'types': ['street_address']}, {'geocoder_status': 'OK', 'place_id': 'ChIJpdn9BzIbdkgRra1pNHS2gS8', 'types': ['street_address']}], 'routes': [{'bounds': {'northeast': {'lat': 51.5196853, 'lng': -0.1296004}, 'southwest': {'lat': 51.5190001, 'lng': -0.1312136}}, 'copyrights': 'Map data \u00a92021 Google', 'legs': [{'distance': {'text': '0.1 km', 'value': 135}, 'duration': {'text': '1 min', 'value': 42}, 'duration_in_traffic': {'text': '1 min', 'value': 46}, 'end_address': '10 Bedford Square, London WC1B 3RA, UK', 'end_location': {'lat': 51.5196853, 'lng': -0.1296004}, 'start_address': '27 Bedford Square, London WC1B 3HP, UK', 'start_location': {'lat': 51.5190001, 'lng': -0.1312136}, 'steps': [{'distance': {'text': '0.1 km', 'value': 135}, 'duration': {'text': '1 min', 'value': 42}, 'end_location': {'lat': 51.5196853, 'lng': -0.1296004}, 'html_instructions': 'Head <b>northeast</b> on <b>Bedford Square</b>/<wbr/><b>B506</b> toward <b>Gower St</b>/<wbr/><b>A400</b>', 'polyline': {'points': 'whmyH`sXi@}Ac@sAg@aBGSKY'}, 'start_location': {'lat': 51.5190001, 'lng': -0.1312136}, 'travel_mode': 'DRIVING'}], 'traffic_speed_entry': [], 'via_waypoint': []}], 'overview_polyline': {'points': 'whmyH`sXiCaI'}, 'summary': 'Bedford Square/B506', 'warnings': [], 'waypoint_order': []}], 'status': 'OK'}, 'parsed_response': {'google_speed': 2.9347826086956523, 'google_polyline': 'whmyH`sXiCaI'}}", "('6849009938', '4347844152')": "{'path_nodes': ['6849009938', '2131643980', '108055', '4347844152'], 'path_polyline': 'qzkyHrzZgCgDeD}EEQ', 'origin': {'id': '6849009938', 'x': 528985.5627345478, 'y': 180821.66675852746, 'lon': -0.14266138709937176, 'lat': 51.5116071332414, 's2_id': 5221366497056720769}, 'destination': {'id': '4347844152', 'x': 529122.9852262605, 'y': 180996.59834250069, 'lon': -0.14061818709755844, 'lat': 51.51314783324118, 's2_id': 5221366132526926529}, 'timestamp': 1637671582.66941, 'request_payload': {'geocoded_waypoints': [{'geocoder_status': 'OK', 'place_id': 'ChIJUxTMQioFdkgRNTfmkEGiFf0', 'types': ['establishment', 'point_of_interest', 'transit_station']}, {'geocoder_status': 'OK', 'place_id': 'EhsxMSBGb3ViZXJ0J3MgUGwsIExvbmRvbiwgVUsiGhIYChQKEgk5Uptj1QR2SBFamJfZM1Mc4xAL', 'types': ['street_address']}], 'routes': [{'bounds': {'northeast': {'lat': 51.5146648, 'lng': -0.1402504}, 'southwest': {'lat': 51.5116109, 'lng': -0.1426694}}, 'copyrights': 'Map data \u00a92021 Google', 'legs': [{'distance': {'text': '0.7 km', 'value': 677}, 'duration': {'text': '5 mins', 'value': 279}, 'duration_in_traffic': {'text': '5 mins', 'value': 284}, 'end_address': \"11 Foubert's Pl, London W1B 5BD, UK\", 'end_location': {'lat': 51.5131503, 'lng': -0.1406109}, 'start_address': 'New Bond Street (Stop S), London W1S 2YF, UK', 'start_location': {'lat': 51.5116109, 'lng': -0.1426694}, 'steps': [{'distance': {'text': '0.2 km', 'value': 215}, 'duration': {'text': '1 min', 'value': 63}, 'end_location': {'lat': 51.5130943, 'lng': -0.1407118}, 'html_instructions': 'Head <b>northeast</b> on <b>Conduit St</b>/<wbr/><b>B406</b> toward <b>St George St</b><div style=\"font-size:0.9em\">Leaving toll zone</div><div style=\"font-size:0.9em\">Entering toll zone</div>', 'polyline': {'points': 'qzkyHtzZMOu@aAUYW_@QUCEIMY]CAW]ACKMe@s@IIU]ACAEACAEAEAK'}, 'start_location': {'lat': 51.5116109, 'lng': -0.1426694}, 'travel_mode': 'DRIVING'}, {'distance': {'text': '78 m', 'value': 78}, 'duration': {'text': '1 min', 'value': 42}, 'end_location': {'lat': 51.5136973, 'lng': -0.1412745}, 'html_instructions': 'Turn <b>left</b> onto <b>Regent St.</b>/<wbr/><b>A4201</b>', 'maneuver': 'turn-left', 'polyline': {'points': 'yclyHlnZMNq@h@A@YVSPIH'}, 'start_location': {'lat': 51.5130943, 'lng': -0.1407118}, 'travel_mode': 'DRIVING'}, {'distance': {'text': '79 m', 'value': 79}, 'duration': {'text': '1 min', 'value': 32}, 'end_location': {'lat': 51.5140189, 'lng': -0.1402504}, 'html_instructions': 'Turn <b>right</b> onto <b>Great Marlborough St</b>', 'maneuver': 'turn-right', 'polyline': {'points': 'sglyH|qZG[EQOq@Oo@AGOs@'}, 'start_location': {'lat': 51.5136973, 'lng': -0.1412745}, 'travel_mode': 'DRIVING'}, {'distance': {'text': '83 m', 'value': 83}, 'duration': {'text': '1 min', 'value': 40}, 'end_location': {'lat': 51.51466989999999, 'lng': -0.1408255}, 'html_instructions': 'Turn <b>left</b> onto <b>Argyll St</b>', 'maneuver': 'turn-left', 'polyline': {'points': 'silyHpkZ_@X_@Xm@d@IFEDAB?@AD'}, 'start_location': {'lat': 51.5140189, 'lng': -0.1402504}, 'travel_mode': 'DRIVING'}, {'distance': {'text': '65 m', 'value': 65}, 'duration': {'text': '1 min', 'value': 37}, 'end_location': {'lat': 51.51439269999999, 'lng': -0.1416466}, 'html_instructions': '<b>Argyll St</b> turns <b>left</b> and becomes <b>Little Argyll St</b>', 'polyline': {'points': 'umlyHdoZ?D?B@BJd@Lh@DNFRDJFT'}, 'start_location': {'lat': 51.51466989999999, 'lng': -0.1408255}, 'travel_mode': 'DRIVING'}, {'distance': {'text': '0.2 km', 'value': 157}, 'duration': {'text': '1 min', 'value': 65}, 'end_location': {'lat': 51.5131503, 'lng': -0.1406109}, 'html_instructions': 'Turn <b>left</b> onto <b>Regent St.</b>/<wbr/><b>A4201</b>', 'maneuver': 'turn-left', 'polyline': {'points': '}klyHhtZRITIHGLIFMHIHIBCHEJIHK\\\\Wb@a@r@m@'}, 'start_location': {'lat': 51.51439269999999, 'lng': -0.1416466}, 'travel_mode': 'DRIVING'}], 'traffic_speed_entry': [], 'via_waypoint': []}], 'overview_polyline': {'points': 'qzkyHtzZkDsEi@q@gA_BGUAKMNs@j@m@h@IHG[UcAQw@Os@_@XmA~@QR?Rf@rBL`@h@SVQPWb@]~BsB'}, 'summary': 'Conduit St/B406 and Regent St./A4201', 'warnings': [], 'waypoint_order': []}], 'status': 'OK'}, 'parsed_response': {'google_speed': 2.3838028169014085, 'google_polyline': 'qzkyHtzZkDsEi@q@gA_BGUAKMNs@j@m@h@IHG[UcAQw@Os@_@XmA~@QR?Rf@rBL`@h@SVQPWb@]~BsB'}}", "('107843', '107842')": "{'path_nodes': ['107843', '4860880474', '107842'], 'path_polyline': 'oomyHdcX`AvCL^', 'origin': {'id': '107843', 'x': 529932.1864720277, 'y': 181788.54521884263, 'lon': -0.12867188708819463, 'lat': 51.520079433240205, 's2_id': 5221390719594778311}, 'destination': {'id': '107842', 'x': 529869.4437073416, 'y': 181742.90904576948, 'lon': -0.1295924870888332, 'lat': 51.51968373324025, 's2_id': 5221390702256103647}, 'timestamp': 1637671582.669437, 'request_payload': {'geocoded_waypoints': [{'geocoder_status': 'OK', 'place_id': 'ChIJ6XcRBzIbdkgRdc3U7Ncua4g', 'types': ['premise']}, {'geocoder_status': 'OK', 'place_id': 'ChIJpdn9BzIbdkgRra1pNHS2gS8', 'types': ['street_address']}], 'routes': [{'bounds': {'northeast': {'lat': 51.5228336, 'lng': -0.1241399}, 'southwest': {'lat': 51.5178038, 'lng': -0.1296004}}, 'copyrights': 'Map data \u00a92021 Google', 'legs': [{'distance': {'text': '1.6 km', 'value': 1568}, 'duration': {'text': '6 mins', 'value': 388}, 'duration_in_traffic': {'text': '7 mins', 'value': 431}, 'end_address': '10 Bedford Square, London WC1B 3RA, UK', 'end_location': {'lat': 51.5196853, 'lng': -0.1296004}, 'start_address': '1A Montague Pl, London WC1E 7JW, UK', 'start_location': {'lat': 51.5201018, 'lng': -0.1287058}, 'steps': [{'distance': {'text': '0.2 km', 'value': 162}, 'duration': {'text': '1 min', 'value': 28}, 'end_location': {'lat': 51.5209615, 'lng': -0.1268153}, 'html_instructions': 'Head <b>northeast</b> on <b>Montague Pl</b>/<wbr/><b>B506</b> toward <b>Russell Square</b>', 'polyline': {'points': 'somyHlcXCEq@gBM]Uq@i@}AQk@Uq@'}, 'start_location': {'lat': 51.5201018, 'lng': -0.1287058}, 'travel_mode': 'DRIVING'}, {'distance': {'text': '0.3 km', 'value': 304}, 'duration': {'text': '1 min', 'value': 80}, 'end_location': {'lat': 51.5228336, 'lng': -0.1258}, 'html_instructions': 'Turn <b>left</b> onto <b>Russell Square</b><div style=\"font-size:0.9em\">Leaving toll zone</div><div style=\"font-size:0.9em\">Entering toll zone</div>', 'maneuver': 'turn-left', 'polyline': {'points': '_umyHrwW[^yAjBSXUXA@C@A@A@E@M?GECACCAAACAEEKK]Uu@So@AAIWc@uAQs@Ws@KU'}, 'start_location': {'lat': 51.5209615, 'lng': -0.1268153}, 'travel_mode': 'DRIVING'}, {'distance': {'text': '0.2 km', 'value': 187}, 'duration': {'text': '1 min', 'value': 46}, 'end_location': {'lat': 51.5215116, 'lng': -0.1241399}, 'html_instructions': 'Turn <b>right</b> onto <b>Russell Square</b>/<wbr/><b>A4200</b>', 'maneuver': 'turn-right', 'polyline': {'points': 'u`nyHfqWv@eAjA}AvAmBj@y@'}, 'start_location': {'lat': 51.5228336, 'lng': -0.1258}, 'travel_mode': 'DRIVING'}, {'distance': {'text': '0.2 km', 'value': 185}, 'duration': {'text': '1 min', 'value': 45}, 'end_location': {'lat': 51.5205738, 'lng': -0.1263563}, 'html_instructions': 'Turn <b>right</b> onto <b>Russell Square</b><div style=\"font-size:0.9em\">Leaving toll zone</div><div style=\"font-size:0.9em\">Entering toll zone</div>', 'maneuver': 'turn-right', 'polyline': {'points': 'mxmyHzfWJVLb@\\\\dARl@Ph@J^Tr@Xz@`@pA'}, 'start_location': {'lat': 51.5215116, 'lng': -0.1241399}, 'travel_mode': 'DRIVING'}, {'distance': {'text': '0.2 km', 'value': 225}, 'duration': {'text': '1 min', 'value': 44}, 'end_location': {'lat': 51.5189382, 'lng': -0.1244348}, 'html_instructions': 'Turn <b>left</b> onto <b>Montague St</b>', 'maneuver': 'turn-left', 'polyline': {'points': 'qrmyHvtW^g@p@w@T]p@{@JMDI`AoAp@w@JMXY'}, 'start_location': {'lat': 51.5205738, 'lng': -0.1263563}, 'travel_mode': 'DRIVING'}, {'distance': {'text': '0.3 km', 'value': 255}, 'duration': {'text': '2 mins', 'value': 92}, 'end_location': {'lat': 51.5178038, 'lng': -0.1276184}, 'html_instructions': 'Turn <b>right</b> onto <b>Great Russell St</b>', 'maneuver': 'turn-right', 'polyline': {'points': 'khmyHthWX~@f@~Af@`BFVRn@@@BFPn@FTFP?BH\\\\Lp@DVBLBNNfA'}, 'start_location': {'lat': 51.5189382, 'lng': -0.1244348}, 'travel_mode': 'DRIVING'}, {'distance': {'text': '0.2 km', 'value': 250}, 'duration': {'text': '1 min', 'value': 53}, 'end_location': {'lat': 51.5196853, 'lng': -0.1296004}, 'html_instructions': 'Turn <b>right</b> onto <b>Bloomsbury St</b>/<wbr/><b>A400</b><div style=\"font-size:0.9em\">Continue to follow A400</div><div style=\"font-size:0.9em\">Leaving toll zone</div><div style=\"font-size:0.9em\">Entering toll zone</div>', 'maneuver': 'turn-right', 'polyline': {'points': 'gamyHr|WE@OLGDKHMJKLqAzA{@`AST]^]`@EDKJYZk@l@'}, 'start_location': {'lat': 51.5178038, 'lng': -0.1276184},